id,ident,type,name,latitude_deg,longitude_deg,elevation_ft,continent,iso_country,iso_region,municipality,scheduled_service,gps_code,iata_code,local_code,home_link,wikipedia_link,keywords
6560,00S,small_airport,McKenzie Bridge State Airport,44.181466,-122.086,1620.0,,US,US-OR,Blue River,no,,,00S,,https://en.wikipedia.org/wiki/McKenzie_Bridge_State_Airport,
6581,01C,closed,Grant Airport,43.341701507568,-85.775001525879,815.0,,US,US-MI,Grant,no,01C,,01C,,https://en.wikipedia.org/wiki/Grant_Airport,
4650,03N,small_airport,Utirik Airport,11.222,169.852005,4.0,OC,MH,MH-UTI,Utirik Island,yes,K03N,UTK,03N,,https://en.wikipedia.org/wiki/Utirik_Airport,
6740,03S,small_airport,Sandy River Airport,45.401798248291016,-122.22899627685548,704.0,,US,US-OR,Sandy,no,03S,,03S,,https://en.wikipedia.org/wiki/Sandy_River_Airport,
6847,05S,small_airport,Vernonia Airfield,45.85150146484375,-123.24199676513672,647.0,,US,US-OR,Vernonia,no,05S,,05S,,https://en.wikipedia.org/wiki/Vernonia_Airfield,
6868,06FA,small_airport,William P Gwinn Airport,26.90839958190918,-80.32890319824219,28.0,,US,US-FL,Jupiter,no,06FA,,06FA,,https://en.wikipedia.org/wiki/North_Palm_Beach_County_General_Aviation_Airport,
6924,07FA,small_airport,Ocean Reef Club Airport,25.325399398804,-80.274803161621,8.0,,US,US-FL,Key Largo,no,07FA,OCA,07FA,https://www.oceanreef.com/community/private-airport-1345.html,https://en.wikipedia.org/wiki/Ocean_Reef_Club_Airport,
7006,08R,small_airport,Richmond Airport,41.489498,-71.620598,130.0,,US,US-RI,West Kingston,no,,,08R,,https://en.wikipedia.org/wiki/Richmond_Airport_(Rhode_Island),RI04
7048,09OR,heliport,Mid-Columbia Medical Center Heliport,45.587235,-121.163827,487.0,,US,US-OR,The Dalles,no,09OR,,09OR,,https://en.wikipedia.org/wiki/Mid-Columbia_Medical_Center_Heliport,
7063,0AK,small_airport,Pilot Station Airport,61.934601,-162.899994,305.0,,US,US-AK,Pilot Station,yes,,PQS,0AK,,https://en.wikipedia.org/wiki/Pilot_Station_Airport,
7100,0B7,small_airport,Warren-Sugarbush Airport,44.1166992188,-72.8271026611,1470.0,,US,US-VT,Warren,no,0B7,,0B7,,https://en.wikipedia.org/wiki/Warren-Sugarbush_Airport,
7181,0G5,seaplane_base,Grand Marais/Cook County Seaplane Base,47.8263,-90.3835,1635.0,,US,US-MN,Grand Marais,no,0G5,,0G5,http://www.boreal.org/airport/,https://en.wikipedia.org/wiki/Grand_Marais/Cook_County_Seaplane_Base,Devil Track Resort
7270,0L4,small_airport,Lida Junction Airport,37.485801696777344,-117.19100189208984,4684.0,,US,US-NV,Goldfield,no,0L4,,0L4,,https://en.wikipedia.org/wiki/Lida_Junction_Airport,
7271,0L5,small_airport,Goldfield Airport,37.722751,-117.236368,5680.0,,US,US-NV,Goldfield,no,NV50,,NV50,,https://en.wikipedia.org/wiki/Goldfield_Airport,0L5
7382,0N6,small_airport,Albanna Aviation Airport,39.012602,-75.533501,50.0,,US,US-DE,Felton,no,,,0N6,,https://web.archive.org/web/20170306030610/https://en.wikipedia.org/wiki/Henderson_Aviation_Airport,Henderson Aviation
7437,0O4,small_airport,Corning Municipal Airport,39.94359970092773,-122.1709976196289,292.0,,US,US-CA,Corning,no,0O4,,0O4,,https://en.wikipedia.org/wiki/Corning_Municipal_Airport_(California),
7463,0OR0,heliport,Providence Hospital Heliport,42.3386993408,-122.861999512,1350.0,,US,US-OR,Medford,no,0OR0,,0OR0,,https://en.wikipedia.org/wiki/Providence_Hospital_Heliport,
7508,0Q6,closed,Shingletown Airport,40.522099,-121.818001,3880.0,,US,US-CA,Shingletown,no,,,,,https://en.wikipedia.org/wiki/Shingletown_Airport,0Q6
7795,12S,small_airport,Monument Municipal Airport,44.8317985534668,-119.43000030517578,2323.0,,US,US-OR,Monument,no,12S,,12S,,https://en.wikipedia.org/wiki/Monument_Municipal_Airport,
7830,13MA,closed,Metropolitan Airport,42.223301,-72.311401,418.0,,US,US-MA,Palmer,no,,PMX,,,https://en.wikipedia.org/wiki/Metropolitan_Airport,"13MA, PMX"
7838,13NC,small_airport,Oak Grove Marine Corps Outlying Field,35.025006,-77.255945,27.0,,US,US-NC,Pollocksville,no,13NC,,13NC,,https://en.wikipedia.org/wiki/Marine_Corps_Outlying_Field_Oak_Grove,
7961,15OR,heliport,Camp Rilea Heliport,46.1159964394,-123.931392431,32.0,,US,US-OR,Warrenton,no,15OR,,15OR,,https://en.wikipedia.org/wiki/Camp_Rilea_Heliport,
7977,16A,small_airport,Nunapitchuk Airport,60.905591,-162.440454,12.0,,US,US-AK,Nunapitchuk,yes,PPIT,NUP,16A,,https://en.wikipedia.org/wiki/Nunapitchuk_Airport,
8017,16S,small_airport,Myrtle Creek Municipal Airport,42.997157,-123.315412,619.0,,US,US-OR,Myrtle Creek,no,K16S,,16S,http://www.cityofmyrtlecreek.com/city_departments/airport.php,https://en.wikipedia.org/wiki/Myrtle_Creek_Municipal_Airport,Tri-City
8038,17FL,small_airport,Jumbolair-Greystone Airport,29.277416,-82.120709,100.0,,US,US-FL,Ocala,no,17FL,,17FL,,https://en.wikipedia.org/wiki/Greystone_Airport,
8067,17S,small_airport,Chehalem Airpark,45.32369995117188,-123.0540008544922,190.0,,US,US-OR,Newberg,no,17S,,17S,,https://en.wikipedia.org/wiki/Chehalem_Airpark,
8126,19AK,small_airport,Icy Bay Airport,59.966269,-141.660118,50.0,,US,US-AK,Icy Bay,no,19AK,ICY,19AK,,https://en.wikipedia.org/wiki/Icy_Bay_Airport,
8159,19P,seaplane_base,Port Protection Seaplane Base,56.328800201416,-133.61000061035,0.0,,US,US-AK,Port Protection,yes,19P,PPV,19P,,https://en.wikipedia.org/wiki/Port_Protection_Seaplane_Base,
8174,1A8,small_airport,Empire Airport,40.577999,-119.352997,3990.0,,US,US-NV,Empire,no,18NV,,18NV,,https://en.wikipedia.org/wiki/Empire_Airport_(Nevada),1A8
8215,1B5,small_airport,Franconia Airport,44.195611,-71.751023,970.0,,US,US-NH,Franconia,no,,,1B5,,https://en.wikipedia.org/wiki/Franconia_Airport,
8220,1C9,small_airport,Frazier Lake Airpark,36.95330047607422,-121.46499633789062,151.0,,US,US-CA,Hollister,no,1C9,,1C9,,https://en.wikipedia.org/wiki/Frazier_Lake_Airpark,
8272,1F6,closed,Dolgeville Airport,43.116695,-74.749603,945.0,,US,US-NY,Dolgeville,no,,,,,https://en.wikipedia.org/wiki/Dolgeville_Airport,1F6
8273,1F7,small_airport,Airpark East Airport,32.81399917602539,-96.35220336914062,510.0,,US,US-TX,Dallas,no,1F7,,1F7,,https://en.wikipedia.org/wiki/Airpark_East_Airport,
8378,1K1,small_airport,Lloyd Stearman Field,37.77790069580078,-97.1135025024414,1364.0,,US,US-KS,Benton,no,1K1,,1K1,,https://en.wikipedia.org/wiki/Lloyd_Stearman_Field,
8402,1L4,small_airport,Kidwell Airport,35.30550003051758,-114.88300323486328,2605.0,,US,US-NV,Cal Nev Ari,no,1L4,,1L4,,https://en.wikipedia.org/wiki/Kidwell_Airport,
8428,1M7,small_airport,Fulton Airport,36.5259017944336,-88.91560363769531,400.0,,US,US-KY,Fulton,no,1M7,,1M7,,https://en.wikipedia.org/wiki/Fulton_Airport,
8509,1N2,small_airport,Spadaro Airport,40.82789993286133,-72.74870300292969,50.0,,US,US-NY,East Moriches,no,1N2,,1N2,,https://en.wikipedia.org/wiki/Spadaro_Airport,
8565,1O0,seaplane_base,Lake Woahink Seaplane Base,43.90420150756836,-124.11499786376952,39.0,,US,US-OR,Florence,no,1O0,,1O0,,https://en.wikipedia.org/wiki/Lake_Woahink_Seaplane_Base,
8566,1O6,small_airport,Dunsmuir Muni-Mott Airport,41.263199,-122.272003,3258.0,,US,US-CA,Dunsmuir,no,KMHS,MHS,1O6,,https://en.wikipedia.org/wiki/Dunsmuir_Municipal-Mott_Airport,
8612,1P1,small_airport,Plymouth Municipal Airport,43.77920150756836,-71.75370025634766,505.0,,US,US-NH,Plymouth,no,1P1,,1P1,,https://en.wikipedia.org/wiki/Plymouth_Municipal_Airport_(New_Hampshire),
8638,1RL,small_airport,Point Roberts Airpark,48.97969818115234,-123.0790023803711,10.0,,US,US-WA,Point Roberts,no,1RL,,1RL,,https://en.wikipedia.org/wiki/Point_Roberts_Airpark,
8644,1S8,small_airport,Arlington Municipal Airport,45.722683,-120.176418,890.0,,US,US-OR,Arlington,no,,,1S8,,https://en.wikipedia.org/wiki/Arlington_Municipal_Airport_(Oregon),
8724,1W1,small_airport,Grove Field,45.62779998779297,-122.40399932861328,429.0,,US,US-WA,Camas,no,1W1,,1W1,,https://en.wikipedia.org/wiki/Grove_Field_Airport,
8725,1W3,small_airport,Mexico Farms Airport,39.60480117797852,-78.7605972290039,607.0,,US,US-MD,Cumberland,no,1W3,,1W3,,https://en.wikipedia.org/wiki/Mexico_Farms_Airport,
8732,1WA6,small_airport,Fall City Airport,47.55950164794922,-121.86399841308594,140.0,,US,US-WA,Fall City,no,1WA6,,1WA6,,https://en.wikipedia.org/wiki/Fall_City_Airport,
8753,1XA2,small_airport,Chase Field Industrial Airport,28.362444,-97.661917,190.0,,US,US-TX,Beeville,no,,NIR,TX2,,https://en.wikipedia.org/wiki/Chase_Field_Industrial_Complex,"1XA2, Naval Air Station Chase Field, Beeville Municipal Airport"
8774,1Z1,small_airport,Grand Canyon Bar Ten Airstrip,36.258614,-113.231159,4100.0,,US,US-AZ,Littlefield,no,,GCT,1Z1,,https://en.wikipedia.org/wiki/Grand_Canyon_Bar_10_Airport,Webbs Ranch
8860,21PA,closed,Ryon Heliport,40.6651,-76.186095,1100.0,,US,US-PA,Pottsville,no,,,,,https://en.wikipedia.org/wiki/Ryon_Heliport,21PA
9027,24S,small_airport,Pinehurst State Airport,42.110198974609375,-122.38300323486328,3638.0,,US,US-OR,Pinehurst,no,24S,,24S,,https://en.wikipedia.org/wiki/Pinehurst_State_Airport,
9082,25U,small_airport,Memaloose Airport,45.42770004272461,-116.69400024414062,6708.0,,US,US-OR,Imnaha,no,25U,,25U,,https://en.wikipedia.org/wiki/Memaloose_Airport,
9114,26N,small_airport,Ocean City Municipal Airport,39.26350021362305,-74.60749816894531,5.0,,US,US-NJ,Ocean City,no,26N,,26N,,https://en.wikipedia.org/wiki/Ocean_City_Municipal_Airport_(New_Jersey),
9181,27W,small_airport,Lake Wenatchee State Airport,47.81940078735352,-120.72000122070312,1939.0,,US,US-WA,Leavenworth,no,27W,,27W,,https://en.wikipedia.org/wiki/Lake_Wenatchee_State_Airport,
9228,28U,small_airport,Owyhee Reservoir State Airport,43.42490005493164,-117.34500122070312,2680.0,,US,US-OR,Owyhee,no,28U,,28U,,https://en.wikipedia.org/wiki/Owyhee_Reservoir_State_Airport,
9270,29OR,closed,Smith Private Airport,45.031465,-122.956952,180.0,,US,US-OR,Brooks,no,,,,,https://en.wikipedia.org/wiki/Smith_Private_Airport,29OR
9271,29PA,closed,Gardner Airport,40.555847,-75.645283,500.0,,US,US-PA,Breinigsville,no,,,,,https://en.wikipedia.org/wiki/Gardner_Airport_(Pennsylvania),29PA
9285,2A8,small_airport,Addison Municipal Airport,34.217038,-87.158353,786.0,,US,US-AL,Addison,no,,,2A8,,https://en.wikipedia.org/wiki/Addison_Municipal_Airport,
9330,2B9,small_airport,Post Mills Airport,43.8842010498,-72.2537002563,693.0,,US,US-VT,Post Mills,no,2B9,,2B9,,https://en.wikipedia.org/wiki/Post_Mills_Airport,
9402,2G8,small_airport,Gorham Airport,44.39310073852539,-71.19670104980469,835.0,,US,US-NH,Gorham,no,2G8,,2G8,,https://en.wikipedia.org/wiki/Gorham_Airport,
9422,2H3,small_airport,Cornell Municipal Airport,45.165501,-91.105698,1154.0,,US,US-WI,Cornell,no,4WI9,,4WI9,,https://en.wikipedia.org/wiki/Cornell_Municipal_Airport,2H3
9426,2I2,closed,Olive Hill-Sellers' Field,38.253700256348,-83.142997741699,1016.0,,US,US-KY,Olive Hill,no,2I2,,2I2,,https://en.wikipedia.org/wiki/Olive_Hill_Airport,
20770,2IG4,small_airport,Ed-Air Airport,38.851398468,-87.4997024536,426.0,,US,US-IN,Oaktown,no,I20,OTN,I20,http://www.edairinc.com/index.html,https://en.wikipedia.org/wiki/Ed-Air_Airport,"Formerly KOTN, Formerly OTN, 2IG4"
9476,2J0,small_airport,Wakulla County Airport,29.988973,-84.395763,11.0,,US,US-FL,Panacea,no,,,2J0,,https://en.wikipedia.org/wiki/Wakulla_County_Airport,
9485,2K5,small_airport,Telida Airport,63.393901824951,-153.26899719238,650.0,,US,US-AK,Telida,no,2K5,TLF,2K5,,https://en.wikipedia.org/wiki/Telida_Airport,
9666,2OG3,seaplane_base,Wiley's Seaplane Base,45.430999755859375,-122.6500015258789,12.0,,US,US-OR,Lake Oswego,no,2OG3,,2OG3,,https://en.wikipedia.org/wiki/Wiley's_Seaplane_Port,
9696,2OR1,small_airport,Big Muddy Ranch Airport,44.828499,-120.495003,1641.0,,US,US-OR,Fossil,no,2OR1,,2OR1,,https://en.wikipedia.org/wiki/Big_Muddy_Ranch_Airport,Rajneeshpuram
9702,2OR7,closed,Sweet Home Airport,44.399736,-122.683566,645.0,,US,US-OR,Sweet Home,no,,,,,https://en.wikipedia.org/wiki/Sweet_Home_Airport,"2OR7, Langmack Airfield, SH Aircraft Painting"
9737,2Q9,small_airport,Dyer Airport,37.60969924926758,-118.00599670410156,4899.0,,US,US-NV,Dyer,no,2Q9,,2Q9,,https://en.wikipedia.org/wiki/Dyer_Airport,
9742,2S2,small_airport,Beaver Marsh State Airport,43.12900161743164,-121.81800079345705,4638.0,,US,US-OR,Beaver Marsh,no,2S2,,2S2,,https://en.wikipedia.org/wiki/Beaver_Marsh_Airport,
9745,2S6,small_airport,Sportsman Airpark,45.29570007,-122.9550018,181.0,,US,US-OR,Newberg,no,2S6,,2S6,,https://en.wikipedia.org/wiki/Sportsman_Airpark,
9927,30M,small_airport,Ralph M Sharpe Airport,34.6589,-90.3763,195.0,,US,US-MS,Tunica,no,30M,,30M,,https://en.wikipedia.org/wiki/Ralph_M._Sharpe_Airport,
9937,30OR,small_airport,Bero Field,45.802601,-123.279999,700.0,,US,US-OR,Vernonia,no,30OR,,30OR,,https://en.wikipedia.org/wiki/Bero_Field,
10226,37I,small_airport,Troy Skypark Airport,39.990898,-84.2705,930.0,,US,US-OH,Troy,no,OH71,,OH71,,https://en.wikipedia.org/wiki/Troy_Skypark,37I
10337,39MO,small_airport,Gardner Airport,37.11869812011719,-93.20490264892578,1325.0,,US,US-MO,Springfield,no,39MO,,39MO,,https://en.wikipedia.org/wiki/Gardner_Airport_(Missouri),
10557,3L1,closed,Charlie Hammonds Seaplane Base,29.589899,-90.713402,5.0,,US,US-LA,Houma,no,,,,,https://en.wikipedia.org/wiki/Charlie_Hammonds_Seaplane_Base,3L1
10622,3MO,small_airport,Sean D Sheldon Memorial Airfield,38.0186,-93.6931,900.0,,US,US-MO,Osceola,no,23MU,,23MU,,https://en.wikipedia.org/wiki/Osceola_Municipal_Airport_(Missouri),"3MO, Osceola Municipal Airport"
46291,3NR3,small_airport,Transylvania Community Airport,35.270277,-82.644167,2110.0,,US,US-NC,Brevard,no,3NR3,,3NR3,http://www.transylvaniacommunityairport.com/,https://en.wikipedia.org/wiki/Transylvania_County_Airport,"22W, Transylvania County Airport"
10733,3OR5,heliport,Elkins Heliport,44.86009979248047,-123.03800201416016,550.0,,US,US-OR,Salem,no,3OR5,,3OR5,,https://en.wikipedia.org/wiki/Elkins_Heliport,
10770,3RU,small_airport,Rust Airstrip,33.3326,-84.401901,810.0,,US,US-GA,Woolsey,no,GA82,,GA82,,https://en.wikipedia.org/wiki/Rust_Airstrip,3RU
10773,3S6,small_airport,Toketee State Airport,43.2234992980957,-122.4209976196289,3361.0,,US,US-OR,Clearwater,no,3S6,,3S6,,https://en.wikipedia.org/wiki/Toketee_State_Airport,
10774,3S7,small_airport,Nehalem Bay State Airport,45.69820022583008,-123.93000030517578,22.0,,US,US-OR,Manzanita,no,3S7,,3S7,,https://en.wikipedia.org/wiki/Nehalem_Bay_State_Airport,
10785,3T7,small_airport,Middle Bass Island Airport,41.68510055541992,-82.80490112304688,580.0,,US,US-OH,Middle Bass Island,no,3T7,,3T7,,https://en.wikipedia.org/wiki/Middle_Bass_Island_Airport,
10857,3W2,small_airport,Put In Bay Airport,41.63669967651367,-82.82830047607422,595.0,,US,US-OH,Put In Bay,no,3W2,,3W2,,https://en.wikipedia.org/wiki/Put-in-Bay_Airport,
11002,42MI,closed,Midway Airport,42.215858,-84.806313,963.0,,US,US-MI,Albion,no,,,,,https://en.wikipedia.org/wiki/Midway_Airport_(Michigan),42MI
11071,44FD,closed,Epcot Center Ultralightport,28.353099823,-81.54699707030001,102.0,,US,US-FL,Lake Buena Vista,no,44FD,,44FD,,https://en.wikipedia.org/wiki/Epcot_Center_Ultralight_Flightpark,
11098,44T,small_airport,Hoskins Field,46.992438,-122.828003,213.0,,US,US-WA,Olympia,no,,,44T,https://wsdot.wa.gov/aviation/AllStateAirports/Olympia_HoskinsField.htm,https://en.wikipedia.org/wiki/Hoskins_Field_(Washington),WA44
11138,45S,small_airport,Silver Lake F S Strip,43.11100006103516,-121.09400177001952,4492.0,,US,US-OR,Silver Lake,no,45S,,45S,,https://en.wikipedia.org/wiki/Silver_Lake_Forest_Service_Strip,
345394,48LS,heliport,Our Lady of Lourdes Regional Medical Center Heliport,30.151714,-92.035722,30.0,,US,US-LA,Lafayette,no,48LS,,48LS,,https://en.wikipedia.org/wiki/Our_Lady_of_Lourdes_Regional_Medical_Center,
18795,48Y,small_airport,Piney Pinecreek Border Airport,48.99959945678711,-95.98259735107422,1078.0,,US,US-MN,Pinecreek,no,48Y,,48Y,,https://en.wikipedia.org/wiki/Piney_Pinecreek_Border_Airport,
11318,4A2,small_airport,Atmautluak Airport,60.866699,-162.272996,17.0,,US,US-AK,Atmautluak,yes,,ATT,4A2,,https://en.wikipedia.org/wiki/Atmautluak_Airport,08AK
11487,4K5,small_airport,Ouzinkie Airport,57.925362,-152.496715,55.0,,US,US-AK,Ouzinkie,yes,,KOZ,4K5,,https://en.wikipedia.org/wiki/Ouzinkie_Airport,
11488,4KA,small_airport,Tununak Airport,60.575500488281,-165.27200317383,14.0,,US,US-AK,Tununak,no,4KA,TNK,4KA,,https://en.wikipedia.org/wiki/Tununak_Airport,
11581,4N0,small_airport,Newman's Airport,42.288813,-85.748949,840.0,,US,US-MI,Kalamazoo,no,,,4N0,,https://en.wikipedia.org/wiki/Newman's_Airport,
45946,4OR1,heliport,McNary ARNG Field Heliport,44.912,-123.001502752,209.0,,US,US-OR,Salem,yes,4OR1,,4OR1,,https://en.wikipedia.org/wiki/McNary_ARNG_Field_Heliport,
11675,4OR9,closed,Peace Harbor Hospital Heliport,43.973998,-124.116997,28.0,,US,US-OR,Florence,no,,,,,https://en.wikipedia.org/wiki/Peace_Harbor_Hospital_Heliport,4OR9
11703,4S4,small_airport,Skyport Airport,45.58259963989258,-123.0530014038086,174.0,,US,US-OR,Cornelius,no,4S4,,4S4,,https://en.wikipedia.org/wiki/Skyport_Airport,
11706,4S7,small_airport,Malin Airport,42.0009994506836,-121.39600372314452,4052.0,,US,US-OR,Malin,no,4S7,,4S7,,https://en.wikipedia.org/wiki/Malin_Airport,
11761,4U8,small_airport,Morrison Flight Park Ultralightport,39.022201538100006,-87.1875,520.0,,US,US-IN,Linton,no,,,0IN6,,https://en.wikipedia.org/wiki/Morrison_Flight_Park,4U8
11774,4W0,small_airport,Bandera State Airport,47.39540100097656,-121.53600311279295,1636.0,,US,US-WA,Bandera,no,4W0,,4W0,,https://en.wikipedia.org/wiki/Bandera_State_Airport,
11776,4W6,closed,Blaine Municipal Airport,48.990101,-122.732002,75.0,,US,US-WA,Blaine,no,,,,,https://en.wikipedia.org/wiki/Blaine_Municipal_Airport,"BWS, 4W6"
11820,4Z7,seaplane_base,Hyder Seaplane Base,55.903324,-130.009975,,,US,US-AK,Hyder,yes,,WHD,4Z7,,https://en.wikipedia.org/wiki/Hyder_Seaplane_Base,
11900,51Z,small_airport,Minto Al Wright Airport,65.1437,-149.369995,460.0,,US,US-AK,Minto,no,,MNT,51Z,,https://en.wikipedia.org/wiki/Minto_Airport,
12102,56OR,heliport,Mount Hood Medical Center Heliport,45.515936687,-122.406449318,338.0,,US,US-OR,Gresham,no,56OR,,56OR,,https://en.wikipedia.org/wiki/Mount_Hood_Medical_Center_Heliport,
12105,56S,small_airport,Seaside Municipal Airport,46.01649857,-123.9049988,12.0,,US,US-OR,Seaside,no,56S,,56S,,https://en.wikipedia.org/wiki/Seaside_Municipal_Airport,
12114,57A,seaplane_base,Tokeen Seaplane Base,55.9370994568,-133.32699585,,,US,US-AK,Tokeen,no,57A,TKI,57A,,https://en.wikipedia.org/wiki/Tokeen_Seaplane_Base,
12117,57AZ,small_airport,La Cholla Airpark,32.446633,-111.002898,2940.0,,US,US-AZ,Oro Valley,no,57AZ,,57AZ,,https://en.wikipedia.org/wiki/La_Cholla_Airpark,"tucson, la cholla"
12165,58F,closed,Lane Field,33.365398,-97.146103,700.0,,US,US-TX,Sanger,no,,,,,https://en.wikipedia.org/wiki/Lane_Field_Airport,58F
12243,5A8,medium_airport,Aleknagik / New Airport,59.2826004028,-158.617996216,66.0,,US,US-AK,Aleknagik,yes,5A8,WKK,5A8,,https://en.wikipedia.org/wiki/Aleknagik_Airport,
12422,5J2,closed,Siltcoos Lake Seaplane Base,43.866501,-124.084999,9.0,,US,US-OR,Florence,no,,,,,https://en.wikipedia.org/wiki/Siltcoos_Lake_Seaplane_Base,5J2
12429,5KE,seaplane_base,Ketchikan Harbor Seaplane Base,55.349899,-131.677002,,,US,US-AK,Ketchikan,yes,,WFB,5KE,,https://en.wikipedia.org/wiki/Ketchikan_Harbor_Seaplane_Base,
12515,5MO7,closed,St. John's Regional Medical Center Heliport,37.061501,-94.531303,1020.0,,US,US-MO,Joplin,no,,,,,https://en.wikipedia.org/wiki/Mercy_Hospital_Joplin,5MO7
12560,5NK,small_airport,Naknek Airport,58.735633,-157.02216,70.0,,US,US-AK,Naknek,no,,NNK,5NK,,https://en.wikipedia.org/wiki/Naknek_Airport,
12608,5OR2,closed,Bushnell Airport,45.103197,-123.425003,220.0,,US,US-OR,Sheridan,no,,,,,https://en.wikipedia.org/wiki/Bushnell_Airport,5OR2
12612,5OR6,heliport,Holy Rosary Medical Center Heliport,44.0256114696,-116.975815594,2155.0,,US,US-OR,Ontario,no,5OR6,,5OR6,,https://en.wikipedia.org/wiki/Holy_Rosary_Medical_Center_Heliport,
12649,5S1,small_airport,George Felt Airport,43.22480010986328,-123.39700317382812,428.0,,US,US-OR,Roseburg,no,5S1,,5S1,,https://en.wikipedia.org/wiki/George_Felt_Airport,
12650,5S4,small_airport,Toledo State Airport,44.60100173950195,-123.94000244140624,7.0,,US,US-OR,Toledo,no,5S4,,5S4,,https://en.wikipedia.org/wiki/Toledo_State_Airport,
12651,5S5,small_airport,Lake Billy Chinook State Airport,44.519805,-121.3196,2695.0,,US,US-OR,Culver,no,,,5S5,,https://en.wikipedia.org/wiki/Lake_Billy_Chinook_Airport,
12764,5Z9,seaplane_base,Lake Brooks Seaplane Base,58.554798126221,-155.77699279785,36.0,,US,US-AK,Katmai National Park,no,5Z9,BKF,5Z9,,https://en.wikipedia.org/wiki/Lake_Brooks_Seaplane_Base,
12820,61J,heliport,Portland Downtown Heliport,45.52502,-122.670704,78.0,,US,US-OR,Portland,no,,,61J,,https://en.wikipedia.org/wiki/Portland_Downtown_Heliport,
12906,63K,small_airport,Hillside Airport,38.82109832763672,-94.60970306396484,1025.0,,US,US-KS,Stilwell,no,63K,,63K,,https://en.wikipedia.org/wiki/Hillside_Airport,
12946,64I,small_airport,Lee Bottom Airport,38.631198883057,-85.443603515625,470.0,,US,US-IN,Hanover,no,64I,,64I,http://www.leebottom.com/index.html,https://en.wikipedia.org/wiki/Lee_Bottom_Airport,II93
12989,65GA,closed,Morris Army Airfield,33.615002,-84.346389,966.0,,US,US-GA,Fort Gillem,no,,,,,https://en.wikipedia.org/wiki/Morris_Army_Airfield,"FOP, 65GA"
12995,65LA,small_airport,Southern Seaplane Airport,29.866078,-90.021608,,,US,US-LA,Belle Chasse,no,65LA,BCS,65LA,http://southernseaplane.com/cms/?page_id=460,https://en.wikipedia.org/wiki/Southern_Seaplane_Airport,
608,69S,small_airport,Avey Field State/Laurier Airport,48.998264,-118.222605,1655.0,,US,US-WA,Laurier,no,,,69S,,https://en.wikipedia.org/wiki/Avey_Field_State_Airport,Avey Field State Airport
13199,6B0,small_airport,Middlebury State Airport,43.9847984314,-73.09590148929999,490.0,,US,US-VT,Middlebury,no,6B0,,6B0,,https://en.wikipedia.org/wiki/Middlebury_State_Airport,
13202,6B6,small_airport,Minute Man Air Field,42.46049880981445,-71.51789855957031,268.0,,US,US-MA,Stow,no,6B6,,6B6,,https://en.wikipedia.org/wiki/Minute_Man_Air_Field,
13203,6C0,small_airport,Eldora Airport,42.330183,-93.114286,979.0,,US,US-IA,Eldora,no,,,27P,https://www.iowadot.gov/aviation/data_driven/publications/System_plan_reports/SPR6C0.pdf,https://en.wikipedia.org/wiki/Eldora_Municipal_Airport,"6C0, Eldora Municipal"
13215,6CL0,closed,Majors Airport,35.5261,-119.101997,640.0,,US,US-CA,Bakersfield,no,,,,,https://en.wikipedia.org/wiki/Majors_Airport_(California),6CL0
13320,6K2,small_airport,Shelby County Airport,39.812599182128906,-92.05020141601562,766.0,,US,US-MO,Shelbyville,no,6K2,,6K2,,https://en.wikipedia.org/wiki/Shelby_County_Airport_(Missouri),
13355,6MA0,seaplane_base,Lake Gardner Seaplane Base,42.86149978637695,-70.94339752197266,87.0,,US,US-MA,Amesbury,no,6MA0,,6MA0,,https://en.wikipedia.org/wiki/Lake_Gardner_Seaplane_Base,
13407,6N7,seaplane_base,New York Skyports Inc Seaplane Base,40.735061,-73.972814,,,US,US-NY,New York,yes,,QNY,6N7,,https://en.wikipedia.org/wiki/New_York_Skyports_Inc._Seaplane_Base,
13443,6NK,small_airport,Syracuse Suburban Airport,43.26499938964844,-76.1781005859375,400.0,,US,US-NY,Syracuse,no,6NK,,6NK,,https://en.wikipedia.org/wiki/Syracuse_Suburban_Airport,
13485,6OK6,small_airport,Earl Henry Airport,36.7958984375,-97.3170013428,1054.0,,US,US-OK,Blackwell,no,6OK6,BWL,6OK6,,https://en.wikipedia.org/wiki/Earl_Henry_Airport,
13493,6OR5,heliport,Meridian Park Hospital Heliport,45.3780192213,-122.739767432,215.0,,US,US-OR,Tualatin,no,6OR5,,6OR5,,https://en.wikipedia.org/wiki/Meridian_Park_Hospital_Heliport,
13497,6OR9,small_airport,Reds Wallowa Horse Ranch Airport,45.344952,-117.627096,3600.0,,US,US-OR,Enterprise,no,,,68D,,https://en.wikipedia.org/wiki/Reds_Wallowa_Horse_Ranch_Airport,6OR9
13528,6S4,small_airport,Davis Airport,44.74570083618164,-122.4209976196289,1026.0,,US,US-OR,Gates,no,6S4,,6S4,,https://en.wikipedia.org/wiki/Davis_Airport_(Oregon),
13529,6S6,small_airport,Powers Airport,42.86959838867188,-124.05899810791016,326.0,,US,US-OR,Powers,no,6S6,,6S6,,https://en.wikipedia.org/wiki/Powers_Airport,
13634,6Y8,small_airport,Welke Airport,45.72119903564453,-85.52030181884766,664.0,,US,US-MI,Beaver Island,no,6Y8,,6Y8,,https://en.wikipedia.org/wiki/Welke_Airport,
13641,70CL,small_airport,Amargosa Airport,36.29579925537109,-116.4260025024414,2037.0,,US,US-CA,Death Valley Junction,no,70CL,,70CL,,https://en.wikipedia.org/wiki/Amargosa_Airport,
13814,74N,small_airport,Bendigo Airport,40.55849838256836,-76.55960083007812,791.0,,US,US-PA,Tower City,no,74N,,74N,,https://en.wikipedia.org/wiki/Bendigo_Airport_(Pennsylvania),
13842,75FL,small_airport,Sandy Creek Airpark,30.102663,-85.479555,13.0,,US,US-FL,Panama City,no,75FL,,75FL,,https://en.wikipedia.org/wiki/Sandy_Creek_Airpark,
13867,75OR,heliport,Malheur Memorial Hospital Heliport,43.8801994324,-117.008003235,2185.0,,US,US-OR,Nyssa,no,75OR,,75OR,,https://en.wikipedia.org/wiki/Malheur_Memorial_Hospital_Heliport,
15659,77MI,closed,David's Airport,42.0653,-85.241602,887.0,,US,US-MI,Athens,no,,,,,https://en.wikipedia.org/wiki/David%27s_Airport,9C2
13947,77OR,heliport,BLM Heliport,44.2790217965,-120.902110934,3250.0,,US,US-OR,Prineville,no,77OR,,77OR,,https://en.wikipedia.org/wiki/BLM_Heliport,
13969,78I,small_airport,Pam's Place Airport,39.500801086426,-86.691902160645,795.0,,US,US-IN,Eminence,no,78I,,78I,,https://en.wikipedia.org/wiki/Pam's_Place_Airport,5II0
13997,78WA,small_airport,Center Island Airport,48.4901008606,-122.832000732,115.0,,US,US-WA,Center Island,no,78WA,CWS,78WA,,https://en.wikipedia.org/wiki/Center_Island_Airport,
14018,79N,small_airport,Ridge Soaring Gliderport,40.8838996887207,-77.9072036743164,815.0,,US,US-PA,Unionville,no,79N,,79N,,https://en.wikipedia.org/wiki/Ridge_Soaring_Gliderport,
318200,7AL5,small_airport,Liberty Field Airport,31.2899028,-85.5404778,363.0,,US,US-AL,Pinckard,no,7AL5,,7AL5,,http://www.airnav.com/airport/7AL5,
14093,7F2,closed,Dupree Municipal Airport,45.045739,-101.605696,2341.0,,US,US-SD,Dupree,no,,,,,https://en.wikipedia.org/wiki/Dupree_Municipal_Airport,7F2
14110,7FL6,small_airport,Spruce Creek Airport,29.0802001953125,-81.04669952392578,24.0,,US,US-FL,Daytona Beach,no,7FL6,,7FL6,,https://en.wikipedia.org/wiki/Spruce_Creek_Fly-In,
14173,7KA,small_airport,Tatitlek Airport,60.871449,-146.690297,62.0,,US,US-AK,Tatitlek,yes,PAKA,TEK,7KA,,https://en.wikipedia.org/wiki/Tatitlek_Airport,
14258,7N3,seaplane_base,Sands Point Seaplane Base,40.83760070800781,-73.71620178222656,,,US,US-NY,Port Washington,no,7N3,,7N3,,https://en.wikipedia.org/wiki/Sands_Point_Seaplane_Base,
14270,7NC2,small_airport,Pine Island Airport,36.2535018921,-75.7884979248,16.0,,US,US-NC,Corolla,no,7NC2,DUF,7NC2,,https://en.wikipedia.org/wiki/Pine_Island_Airport,
45668,7NK9,closed,Women And Children'S Hospital Heliport,42.909234,-78.874361,715.0,,US,US-NY,Buffalo,no,,,,,https://en.wikipedia.org/wiki/Women_%26_Children%27s_Hospital_of_Buffalo,"7NK9, CHOB Heliport"
14343,7OR5,heliport,Emanuel Hospital Heliport,45.5430206012,-122.670512795,160.0,,US,US-OR,Portland,no,7OR5,,7OR5,,https://en.wikipedia.org/wiki/Emanuel_Hospital_Heliport,
14345,7OR7,small_airport,Hollin Airport,45.05400085449219,-122.90699768066406,170.0,,US,US-OR,Brooks,no,7OR7,,7OR7,,https://en.wikipedia.org/wiki/Hollin_Airport,
14377,7S3,small_airport,Stark's Twin Oaks Airpark,45.42850112915039,-122.94200134277344,170.0,,US,US-OR,Hillsboro,no,7S3,,7S3,,https://en.wikipedia.org/wiki/Stark's_Twin_Oaks_Airpark,
14790,88IN,closed,Gardner Airport,39.5798,-85.932198,740.0,,US,US-IN,Boggstown,no,,,,,https://en.wikipedia.org/wiki/Gardner_Airport_(Indiana),88IN
19113,89NY,small_airport,Maxson Airfield,44.312002,-75.90034,340.0,,US,US-NY,Alexandria Bay,no,89NY,AXB,89NY,https://web.archive.org/web/20161108041600/http://www.maxsonairfield.com/,https://en.wikipedia.org/wiki/Maxson_Airfield,86N
14851,8A4,heliport,Indianapolis Downtown Heliport,39.765899658203,-86.148902893066,732.0,,US,US-IN,Indianapolis,no,8A4,,8A4,http://www.indianapolisairport.com/information_news/airport_indianapolisHeliport.aspx,https://en.wikipedia.org/wiki/Indianapolis_Downtown_Heliport,IN03
15135,8OR1,heliport,Lebanon Hospital Heliport,44.5515336263,-122.907743454,340.0,,US,US-OR,Lebanon,no,8OR1,,8OR1,,https://en.wikipedia.org/wiki/Lebanon_Hospital_Heliport,
15167,8S3,small_airport,Santiam Junction State Airport,44.434347,-121.942406,3780.0,,US,US-OR,Sisters,no,,,8S3,,https://en.wikipedia.org/wiki/Santiam_Junction_State_Airport,
15168,8S4,small_airport,Enterprise Municipal Airport,45.42490005493164,-117.26499938964844,3957.0,,US,US-OR,Enterprise,no,8S4,,8S4,,https://en.wikipedia.org/wiki/Enterprise_Municipal_Airport_(Oregon),
15267,8XS8,small_airport,Reese Airpark,33.590301513672,-102.03700256348,3338.0,,US,US-TX,Lubbock,no,8XS8,REE,8XS8,http://reesetechnologycenter.com/index.php/facilities/airfield-pad-site-development,https://en.wikipedia.org/wiki/Reese_Air_Force_Base,
15292,90OR,heliport,Lake District Hospital Heliport,42.1811152999,-120.351123512,4750.0,,US,US-OR,Lakeview,no,90OR,,90OR,,https://en.wikipedia.org/wiki/Lake_District_Hospital_Heliport,
15326,91OR,closed,Abba's Airport,45.1026,-123.418999,215.0,,US,US-OR,Sheridan,no,,,,,https://en.wikipedia.org/wiki/Abba%27s_Airport,91OR
15378,93B,small_airport,Stonington Municipal Airport,44.17319869995117,-68.6802978515625,30.0,,US,US-ME,Stonington,no,93B,,93B,,https://en.wikipedia.org/wiki/Stonington_Municipal_Airport,
15640,9A3,small_airport,Chuathbaluk Airport,61.579102,-159.216003,244.0,,US,US-AK,Chuathbaluk,yes,PACH,CHU,9A3,,https://en.wikipedia.org/wiki/Chuathbaluk_Airport,
15641,9A8,small_airport,Ugashik Airport,57.523476,-157.396344,25.0,,US,US-AK,Ugashik,no,,UGS,9A8,,https://en.wikipedia.org/wiki/Ugashik_Airport,
15656,9B1,closed,Marlboro Airport,42.343201,-71.509002,285.0,,US,US-MA,Marlboro,no,,MXG,,,https://en.wikipedia.org/wiki/Marlboro_Airport,"9B1, MXG"
15711,9G1,small_airport,Pittsburgh Northeast Airport,40.603287,-79.826038,1063.0,,US,US-PA,Pittsburgh,no,,,9G1,https://www.penndot.gov/TravelInPA/airports-pa/Pages/Pittsburgh-Northeast-Airport.aspx,https://en.wikipedia.org/wiki/Pittsburgh_Northeast_Airport,Rock Airport
15748,9IN3,closed,Johnsons Strawberry Farm Airport,41.5569,-87.226402,620.0,,US,US-IN,Hobart,no,,,,,https://en.wikipedia.org/wiki/Johnsons_Strawberry_Farm_Airport,9IN3
15835,9N1,small_airport,Van Sant Airport,40.483559,-75.10088,390.0,,US,US-PA,Erwinna,no,,,9N1,,https://en.wikipedia.org/wiki/Van_Sant_Airport,Vansant
15836,9N2,seaplane_base,Philadelphia Seaplane Base,39.859001159668,-75.299598693848,0.0,,US,US-PA,Essington,no,9N2,PSQ,9N2,http://www.phillyseaplanebase.com/,https://en.wikipedia.org/wiki/Philadelphia_Seaplane_Base,Chandler Field
15917,9OR2,heliport,Reforestation Services Heliport,44.86819839477539,-123.02300262451172,410.0,,US,US-OR,Salem,no,9OR2,,9OR2,,https://en.wikipedia.org/wiki/Reforestation_Services_Heliport,
15921,9OR6,heliport,Oregon Health Sciences University Emerg Heliport,45.4991281091,-122.685334682,540.0,,US,US-OR,Portland,no,9OR6,,9OR6,,https://en.wikipedia.org/wiki/Oregon_Health_%26_Science_University_Emergency_Heliport,
15952,9S3,small_airport,Lakeside State Airport,43.58319854736328,-124.18000030517578,20.0,,US,US-OR,Lakeside,no,9S3,,9S3,,https://en.wikipedia.org/wiki/Lakeside_State_Airport,
16020,9VG,small_airport,Campbell Field,37.458845,-75.877209,40.0,,US,US-VA,Weirwood,no,,,9VG,,https://en.wikipedia.org/wiki/Campbell_Field_Airport,"Kellum Field, W08, VG26"
16069,9Z8,small_airport,Levelock Airport,59.12606,-156.860906,39.0,,US,US-AK,Levelock,yes,,KLL,9Z8,,https://en.wikipedia.org/wiki/Levelock_Airport,
16074,A23,seaplane_base,Saginaw Seaplane Base,56.8862991333,-134.158004761,0.0,,US,US-AK,Saginaw Bay,no,A23,SGW,A23,,https://en.wikipedia.org/wiki/Saginaw_Seaplane_Base,
16075,A26,small_airport,Adin Airport,41.18600082397461,-120.9520034790039,4229.0,,US,US-CA,Adin,no,A26,,A26,,https://en.wikipedia.org/wiki/Adin_Airport,
16081,A57,small_airport,Alsek River Airport,59.1991802403,-138.447293043,30.0,,US,US-AK,Yakutat,no,A57,,A57,,https://en.wikipedia.org/wiki/Alsek_River_Airport,
16082,A61,small_airport,Tuntutuliak Airport,60.3353004456,-162.667007446,16.0,,US,US-AK,Tuntutuliak,no,A61,WTL,A61,,https://en.wikipedia.org/wiki/Tuntutuliak_Airport,
16083,A63,small_airport,Twin Hills Airport,59.07559967041,-160.27299499512,82.0,,US,US-AK,Twin Hills,no,A63,TWA,A63,,https://en.wikipedia.org/wiki/Twin_Hills_Airport,AK63
16088,A77,small_airport,Yankee Creek 2 Airport,63.0018997192,-156.367004395,1120.0,,US,US-AK,Yankee Creek,no,A77,,A77,,https://en.wikipedia.org/wiki/Yankee_Creek_Airport,
16089,A79,small_airport,Chignik Lake Airport,56.2550010681,-158.774993896,50.0,,US,US-AK,Chignik Lake,yes,A79,KCQ,A79,,https://en.wikipedia.org/wiki/Chignik_Lake_Airport,
324756,AAD,small_airport,Adado Airport,6.095802,46.6375,1001.0,AF,SO,SO-GA,Adado,no,,AAD,,,https://en.wikipedia.org/wiki/Adado_Airport,Cadaado Airport
307979,ABE,closed,RAF Calveley,53.113333,-2.603889,,EU,GB,GB-ENG,Cheshire,no,,,,,https://en.wikipedia.org/wiki/RAF_Calveley,
302247,ABL,closed,RNAS/RAF Calshot,50.8199131549,-1.30677223206,,EU,GB,GB-ENG,Hampshire,no,,,,,https://en.wikipedia.org/wiki/RAF_Calshot,
301645,ABP,small_airport,Atkamba Airport,-6.06462,141.095173,150.0,OC,PG,PG-WPD,Atkamba Mission,no,,ABP,AKA,,https://en.wikipedia.org/wiki/Atkamba_Airport,
321987,ABW,closed,Abau Airport,-10.1956,148.7389,10.0,OC,PG,PG-CPM,Abau,no,,ABW,,,https://en.wikipedia.org/wiki/Abau_Airport,
41841,AD-ALV,heliport,Andorra la Vella (Our Lady of Meritxell Hospital) Heliport,42.511228,1.533651,3450.0,EU,AD,AD-08,Escaldes-Engordany,no,,ALV,,,http://pl.wikipedia.org/wiki/Heliport_Andorra_la_Vella,
301695,ADC,small_airport,Andakombe Airport,-7.13722222222,145.744722222,3600.0,OC,PG,PG-EHG,Andekombe,no,AYAN,ADC,ADK,,https://en.wikipedia.org/wiki/Andakombe_Airport,
300604,ADJ,closed,RAF Castletown,58.5847198881,-3.3481693267800003,,EU,GB,GB-SCT,Caithness,no,,,,,https://en.wikipedia.org/wiki/RAF_Castletown,
309426,ADV,small_airport,El Daein Airport,11.4023,26.1186,1560.0,AF,SD,SD-DE,El Daein,no,,ADV,,,https://en.wikipedia.org/wiki/Ed_Daein_Airport,
307258,AE-0005,heliport,Kempinski Emirates Palace Twin Heliport,24.4622678828,54.3205904961,,AS,AE,AE-UQ,,no,,,,,https://en.wikipedia.org/wiki/Emirates_Palace,
341676,AE-0027,closed,Abu Dhabi Airfield,24.45639,54.38989,,AS,AE,AE-AZ,Abu Dhabi,no,,,,,https://en.wikipedia.org/wiki/Abu_Dhabi_Airfield,
300646,AEI,heliport,Algeciras Heliport,36.12882,-5.441079,98.0,EU,ES,ES-CA,Algeciras,yes,LEAG,,,https://www.aena.es/en/algeciras.html,https://en.wikipedia.org/wiki/Algeciras_Heliport,
330359,AEQ,small_airport,Ar Horqin Airport,43.87042,120.15958,1335.0,AS,CN,CN-15,Chifeng,no,,AEQ,,,https://en.wikipedia.org/wiki/Ar_Horqin_Airport,
35365,AF11,small_airport,Salerno Airport,33.3638,69.9561,3780.0,AS,AF,AF-KHO,Khost,no,OASL,OLR,,,https://en.wikipedia.org/wiki/FOB_Salerno,"AF11, Forward Operating Base Serlano, Salerno Landing Zone"
301649,AGAF,small_airport,Afutara Aerodrome,-9.19138888889,160.948611111,23.0,OC,SB,SB-ML,Bila,yes,AGAF,AFT,,,https://en.wikipedia.org/wiki/Afutara_Airport,
302290,AGAR,small_airport,Ulawa Airport,-9.86054358262,161.979546547,40.0,OC,SB,SB-MK,Arona,no,AGAR,RNA,,,https://en.wikipedia.org/wiki/Ulawa_Airport,
35172,AGAT,small_airport,Uru Harbour Airport,-8.87333,161.011002,,OC,SB,SB-ML,Atoifi,yes,AGAT,ATD,,,https://en.wikipedia.org/wiki/Uru_Harbour_Airport,
30634,AGGA,small_airport,Gwaunaru'u Airport,-8.70257,160.682007,5.0,OC,SB,SB-ML,Auki,yes,AGGA,AKS,,,https://en.wikipedia.org/wiki/Auki_Airport,
302047,AGGB,small_airport,Bellona/Anua Airport,-11.3022222222,159.798333333,60.0,OC,SB,SB-RB,Anua,yes,AGGB,BNY,,,https://en.wikipedia.org/wiki/Bellona/Anua_Airport,
302291,AGGC,small_airport,Choiseul Bay Airport,-6.711944,156.396111,,OC,SB,SB-CH,,yes,AGGC,CHY,,,https://en.wikipedia.org/wiki/Choiseul_Bay_Airport,
30678,AGGE,small_airport,Ballalae Airport,-6.990745,155.886656,5.0,OC,SB,SB-WE,Ballalae,yes,AGGE,BAS,,,https://en.wikipedia.org/wiki/Balalae_Airport,
35167,AGGF,small_airport,Fera/Maringe Airport,-8.1075,159.576996,,OC,SB,SB-IS,Fera Island,yes,AGGF,FRE,,,https://en.wikipedia.org/wiki/Fera_Airport,Santa Isabel Islands
3,AGGH,large_airport,Honiara International Airport,-9.428,160.054993,28.0,OC,SB,SB-GU,Honiara,yes,AGGH,HIR,,,https://en.wikipedia.org/wiki/Honiara_International_Airport,Henderson Field
31686,AGGK,small_airport,Ngorangora Airport,-10.4497003555,161.897994995,54.0,OC,SB,SB-MK,Kirakira,yes,AGGK,IRA,,,https://en.wikipedia.org/wiki/Kirakira_Airport,
4,AGGM,medium_airport,Munda Airport,-8.32797,157.263,10.0,OC,SB,SB-WE,Munda,yes,AGGM,MUA,,,https://en.wikipedia.org/wiki/Munda_Airport,
31563,AGGN,small_airport,Nusatupe Airport,-8.09778022766,156.863998413,13.0,OC,SB,SB-WE,Gizo,yes,AGGN,GZO,,,https://en.wikipedia.org/wiki/Nusatupe_Airport,
31932,AGGO,small_airport,Mono Airport,-7.416940212249756,155.56500244140625,,OC,SB,SB-WE,Stirling Island,yes,AGGO,MNY,,,https://en.wikipedia.org/wiki/Mono_Airport,
308425,AGGT,small_airport,Santa Ana Airport,-10.847994,162.454108,3.0,OC,SB,SB-MK,Santa Ana Island,yes,AGGT,NNB,,,https://en.wikipedia.org/wiki/Santa_Ana_Airport_(Solomon_Islands),
32238,AGGU,small_airport,Marau Airport,-9.86166954041,160.824996948,,OC,SB,SB-GU,Marau,yes,AGGU,RUS,,,https://en.wikipedia.org/wiki/Marau_Airport,
302292,AGGY,small_airport,Yandina Airport,-9.092816,159.21841,60.0,OC,SB,SB-CE,Yandina,yes,AGGY,XYA,,,https://en.wikipedia.org/wiki/Yandina_Airport,
35169,AGKG,small_airport,Kaghau Airport,-7.3305,157.585,30.0,OC,SB,SB-CH,Kagau Island,yes,AGKG,KGE,,,https://en.wikipedia.org/wiki/Kaghau_Airport,Kagau Island
301652,AGL,small_airport,Wanigela Airport,-9.3375,149.155555556,53.0,OC,PG,PG-NPP,,no,AYWG,AGL,WGL,,https://en.wikipedia.org/wiki/Wanigela_Airport,
35168,AGOK,small_airport,Gatokae Aerodrome,-8.738358,158.202836,70.0,OC,SB,SB-WE,Gatokae,yes,AGOK,GTA,,,https://en.wikipedia.org/wiki/Gatokae_Aerodrome,
35170,AGRM,small_airport,Ramata Airport,-8.168060302734375,157.64300537109375,,OC,SB,SB-WE,Ramata,yes,AGRM,RBV,,,https://en.wikipedia.org/wiki/Ramata_Airport,
314491,AGY,small_airport,Argyle Downs Airport,-16.508604,128.922485,407.0,OC,AU,AU-WA,Argyle Downs,no,,AGY,,,https://en.wikipedia.org/wiki/Argyle_Downs_Airport,AGY
312371,AHJ,medium_airport,Hongyuan Airport,32.53154,102.35224,11600.0,AS,CN,CN-51,Aba,no,ZUHY,AHJ,,,https://en.wikipedia.org/wiki/Hongyuan_Airport,
299321,AHT,closed,Amchitka Air Force Base,51.381504,179.275997,215.0,,US,US-AK,Amchitka Island,no,,,,,https://en.wikipedia.org/wiki/Amchitka_Army_Airfield,"AHT, PAHT, Constantine Harbor, Amchitka Army Airfield"
46170,AIE,small_airport,Aiome Airport,-5.145699978,144.7307003,350.0,OC,PG,PG-MPM,Aiome,no,AYAO,AIE,AIO,,https://en.wikipedia.org/wiki/Aiome_Airport,
301654,AIH,small_airport,Aiambak Airport,-7.342777777779999,141.2675,90.0,OC,PG,PG-WPD,Aiambak,no,AYAK,AIH,AMB,,https://en.wikipedia.org/wiki/Aiambak_Airport,
299328,AIP,small_airport,Ailinglaplap Airok Airport,7.279422,168.8257,16.0,OC,MH,MH-ALL,Bigatyelang Island,yes,,AIC,,,https://en.wikipedia.org/wiki/Ailinglaplap_Airok_Airport,
16155,AK62,seaplane_base,Naukati Bay Seaplane Base,55.849602,-133.227994,0.0,,US,US-AK,Tuxekan Island,no,AK62,NKI,AK62,,https://en.wikipedia.org/wiki/Naukati_Bay_Seaplane_Base,"62A, Nichin Cove Seaplane Base, WNC"
16165,AK71,small_airport,Point Lonely Short Range Radar Site Airfield,70.911118,-153.237766,17.0,,US,US-AK,Point Lonely,no,PALN,LNI,AK71,,https://en.wikipedia.org/wiki/Point_Lonely_Short_Range_Radar_Site,Lonely Air Station
16174,AK81,seaplane_base,Amook Bay Seaplane Base,57.4715003967,-153.815002441,,,US,US-AK,Amook Bay,yes,AK81,AOS,AK81,,https://en.wikipedia.org/wiki/Amook_Bay_Seaplane_Base,
16188,AK97,small_airport,Boswell Bay Airport,60.4230995178,-146.145996094,230.0,,US,US-AK,Boswell Bay,no,AK97,BSW,AK97,,https://en.wikipedia.org/wiki/Boswell_Bay_Airport,
301754,AKM,small_airport,Zakuoma Airport,10.8902777778,19.8172222222,1370.0,AF,TD,TD-SA,ZaKouma,no,,AKM,,,https://en.wikipedia.org/wiki/Zakouma_Airport,
35356,AL-0001,heliport,Lapraka Heliport,41.330782,19.795152,297.0,EU,AL,AL-11,Tirana,no,,,,,https://en.wikipedia.org/wiki/Lapraka_Airfield,"Lapraka Airfield, Tirana Aerodrome, OOH, ZOOH"
5,AL-LA10,small_airport,Gjirokastër Airfield,40.085383,20.15389,666.0,EU,AL,AL-05,Gjirokastër,no,,,,,https://en.wikipedia.org/wiki/Gjirokastër_Airfield,
16262,AL73,small_airport,Sharpe Field,32.4919013977,-85.7755966187,253.0,,US,US-AL,Tuskegee,no,AL73,TGE,AL73,,https://en.wikipedia.org/wiki/Sharpe_Field,
16289,ALZ,seaplane_base,Alitak Seaplane Base,56.8995018005,-154.248001099,,,US,US-AK,Lazy Bay,no,,ALZ,ALZ,,https://en.wikipedia.org/wiki/Alitak_Seaplane_Base,
44682,AM-0001,small_airport,Syunik Airport,39.202272,46.455204,,AS,AM,AM-SU,Kapan,no,,,,,https://en.wikipedia.org/wiki/Syunik_Airport,
44847,AM-0002,small_airport,Goris Airport,39.450989,46.34724,,AS,AM,AM-SU,Shinuhayr,no,,,,,https://en.wikipedia.org/wiki/Goris_Airport,"Goris, Shinuhayr, Shinuyar"
45229,AMC,small_airport,Mar de Cortés International Airport,31.351987,-113.305177,71.0,,MX,MX-SON,Puerto Peñasco,yes,MMPE,PPE,83550,,https://en.wikipedia.org/wiki/Mar_de_Cort%C3%A9s_International_Airport,
5504,ANG,small_airport,Angaur,6.906829,134.145386,20.0,OC,PW,PW-010,Angaur Island,no,,,ANG,,https://en.wikipedia.org/wiki/Angaur_Airstrip,
8,ANYN,medium_airport,Nauru International Airport,-0.547458,166.919006,22.0,OC,NR,NR-14,Yaren District,yes,ANYN,INU,,,https://en.wikipedia.org/wiki/Nauru_International_Airport,ANAU
35325,AO-0001,small_airport,Catoca Airport,-9.430985,20.311478,3498.0,AF,AO,AO-LSU,Saurimo,no,,CTV,,,https://en.wikipedia.org/wiki/Catoca_Airport,Saurimo North
30840,AO-CNZ,small_airport,Cangamba Airport,-13.7106,19.861099,3894.0,AF,AO,AO-MOX,Cangamba,no,,CNZ,,,https://en.wikipedia.org/wiki/Cangamba_Airport,
43325,AO-GGC,small_airport,Lumbala Airport,-12.6398773193,22.5868206024,3510.0,AF,AO,AO-MOX,Lumbala,no,,GGC,,,https://en.wikipedia.org/wiki/Lumbala_Airport,
43322,AO-KNP,small_airport,Capanda Airport,-9.76937007904,15.4553194046,3366.0,AF,AO,AO-MAL,Capanda,no,FNCP,KNP,,,https://en.wikipedia.org/wiki/Kapanda_Airport,Kapanda
312362,AOD,small_airport,Abou-Deïa Airport,11.4773,19.2874,1592.0,AF,TD,TD-SA,Abou-Deïa,no,,AOD,,,https://en.wikipedia.org/wiki/Abou-De%C3%AFa_Airport,
39579,AQ-0001,small_airport,Novolazarevskaya Station,-70.8461,11.8472,390.0,AN,AQ,AQ-U-A,Queen Maud Land,no,AT17,,,,https://en.wikipedia.org/wiki/Novolazarevskaya_Station,
42221,AQ-0002,small_airport,Troll Airfield,-71.95714,2.45257,4167.0,AN,AQ,AQ-U-A,Troll Station,no,AT27,QET,,,https://en.wikipedia.org/wiki/Troll_airfield,
308225,AQ-0003,closed,González Videla Antarctic Base,-64.824,-62.857,1.0,AN,AQ,AQ-U-A,Waterboat Point,no,SCGB,,,,https://en.wikipedia.org/wiki/Gonz%C3%A1lez_Videla_Antarctic_Base,
324981,AQ-0004,closed,Ellsworth Station,-77.650008,-41.0333,,AN,AQ,AQ-U-A,Ellsworth Station,no,,,BCE,,https://en.wikipedia.org/wiki/Ellsworth_Station,Ellsworth Station
336960,AQ-0005,medium_airport,Jack F. Paulus Skiway,-89.989444,-1.0,9300.0,AN,AQ,AQ-U-A,Amundsen-Scott South Pole Station,no,NZSP,,,,https://en.wikipedia.org/wiki/Jack_F._Paulus_Skiway,
345862,AQ-0011,small_airport,Wolfs Fang,-71.527201,8.8333,3707.0,AN,AQ,AQ-U-A,,no,,,,https://white-desert.com/our-story/wolfsfang-runway-logistics/,https://en.wikipedia.org/wiki/Wolfs_Fang_Runway,
336951,AQBC,medium_airport,Boulder Clay Runway,-74.739373,164.03539,672.0,AN,AQ,AQ-U-A,Zucchelli Station,no,AQBC,,,,https://en.wikipedia.org/wiki/Zucchelli_Station,
16294,AQY,small_airport,Girdwood Airport,60.968774,-149.119792,150.0,,US,US-AK,Girdwood,no,,AQY,AQY,,https://en.wikipedia.org/wiki/Girdwood_Airport,
39045,AR-0370,small_airport,Horco Molle Aeroclub Airport,-26.7961006165,-65.3091964722,1902.0,SA,AR,AR-T,Tucumán,no,,,TCM,,https://en.wikipedia.org/wiki/Mauricio_Gilli_Aerodrome,Mauricio Gilli Aerodrome
321701,AR-0585,small_airport,Santa Elena Airport,-30.976069,-59.776894,,SA,AR,AR-E,Santa Elena,no,,,973,,https://en.wikipedia.org/wiki/Monte_Quemado_Airport,
320904,AT-0005,closed,Retzer Land Heliport,48.7545,15.9622,781.0,EU,AT,AT-3,Retz,no,,,,,https://en.wikipedia.org/wiki/Retzer_Land_Heliport,LOAR
336953,AT03,medium_airport,Concordia Skyway,-75.103278,123.35825,10725.0,AN,AQ,AQ-U-A,Concordia Station,no,AT03,,,,https://en.wikipedia.org/wiki/Concordia_Station,
330063,AT25,small_airport,Showa Station Skiway,-69.006167,39.59,95.0,AN,AQ,AQ-U-A,Showa Station,no,AT25,,,,https://en.wikipedia.org/wiki/Showa_Station_(Antarctica),Syowa Station
336959,AT28,medium_airport,Vostok Skiway,-78.466139,106.84825,11447.0,AN,AQ,AQ-U-A,Vostok Station,no,AT28,,,,https://en.wikipedia.org/wiki/Vostok_Station,
301834,ATN,small_airport,Namatanai Airport,-3.6695,152.438,150.0,OC,PG,PG-NIK,Namatanai,no,AYNX,ATN,NTI,,https://en.wikipedia.org/wiki/Namatanai_Airport,
301672,ATP,small_airport,Aitape Airport,-3.14361111111,142.346805556,10.0,OC,PG,PG-SAN,Aitape,yes,AYAI,ATP,APE,,https://en.wikipedia.org/wiki/Aitape_Airport,
336572,AU-0176,heliport,New Pelion Hut Helipad,-41.829346,146.04582,2799.0,OC,AU,AU-TAS,Cradle Mountain-Lake St Clair National Park,no,,,,,https://en.wikipedia.org/wiki/New_Pelion_Hut,
341966,AU-0188,small_airport,Strowan,-32.460996,150.861705,830.0,OC,AU,AU-NSW,Jerry Plains,no,,,,,https://military.wikia.org/wiki/Strowan_Aerodrome,
27595,AU-0220,closed,Geelong Airport,-38.224998,144.332993,43.0,OC,AU,AU-VIC,,no,,,,,https://en.wikipedia.org/wiki/Geelong_Airport,"YGLG, GEX"
32474,AU-TPR,small_airport,Tom Price Airport,-22.746000289900003,117.869003296,2300.0,OC,AU,AU-WA,Tom Price,no,YTMP,TPR,,,https://en.wikipedia.org/wiki/Tom_Price_Airport,
301668,AUP,small_airport,Agaun Airport,-9.930833,149.385667,3200.0,OC,PG,PG-MBA,,no,AYAG,AUP,AUN,,https://en.wikipedia.org/wiki/Agaun_Airport,
308669,AUS,closed,Austin Robert Mueller Municipal Airport,30.298722,-97.699785,632.0,,US,US-TX,Austin,no,,,,,https://en.wikipedia.org/wiki/Robert_Mueller_Municipal_Airport,"KAUS, AUS"
314558,AXF,medium_airport,Alxa Left Banner Bayanhot Airport,38.74831,105.58858,4560.0,AS,CN,CN-15,Bayanhot,yes,ZBAL,AXF,,,https://en.wikipedia.org/wiki/Alxa_Left_Banner_Bayanhot_Airport,
53,AYBK,medium_airport,Buka Airport,-5.422319889068604,154.67300415039062,11.0,OC,PG,PG-NSB,Buka Island,yes,AYBK,BUA,,,https://en.wikipedia.org/wiki/Buka_Airport,
54,AYCH,medium_airport,Chimbu Airport,-6.024290084838867,144.9709930419922,4974.0,OC,PG,PG-CPK,Kundiawa,yes,AYCH,CMU,,,https://en.wikipedia.org/wiki/Chimbu_Airport,
55,AYDU,medium_airport,Daru Airport,-9.08675956726,143.207992554,20.0,OC,PG,PG-WPD,Daru,yes,AYDU,DAU,,,https://en.wikipedia.org/wiki/Daru_Airport,
307757,AYFR,small_airport,Frieda River Airport,-4.610468,141.960138,217.0,OC,PG,PG-ESW,Frieda River,no,AYFR,FAQ,FRR,,https://en.wikipedia.org/wiki/Frieda_River_Airport,
56,AYGA,medium_airport,Goroka Airport,-6.081689834590001,145.391998291,5282.0,OC,PG,PG-EHG,Goronka,yes,AYGA,GKA,,,https://en.wikipedia.org/wiki/Goroka_Airport,
57,AYGN,medium_airport,Gurney Airport,-10.3114995956,150.333999634,88.0,OC,PG,PG-MBA,Gurney,yes,AYGN,GUR,,,https://en.wikipedia.org/wiki/Gurney_Airport,
307709,AYGP,small_airport,Gusap Airport,-6.053196,145.959047,1504.0,OC,PG,PG-GPK,Gusap,no,AYGP,GAP,GSP,,https://en.wikipedia.org/wiki/Gusap_Airport,
58,AYGR,medium_airport,Girua Airport,-8.80453968048,148.309005737,311.0,OC,PG,PG-NPP,Popondetta,yes,AYGR,PNP,,,https://en.wikipedia.org/wiki/Girua_Airport,
59,AYHK,medium_airport,Kimbe Airport,-5.462170124053955,150.40499877929688,66.0,OC,PG,PG-WBK,Hoskins,yes,AYHK,HKN,,,https://en.wikipedia.org/wiki/Hoskins_Airport,
302264,AYIQ,small_airport,Aropa Airport,-6.305417,155.728139,20.0,OC,PG,PG-NSB,Kieta,yes,AYIQ,KIE,KIA,,https://en.wikipedia.org/wiki/Kieta_Airport,
35188,AYKA,small_airport,Losuia Airport,-8.505820274353027,151.08099365234375,27.0,OC,PG,PG-MBA,Losuia,yes,AYKA,LSA,,,https://en.wikipedia.org/wiki/Losuia_Airport,Formerly Kiriwina Airport
35185,AYKI,small_airport,Kiunga Airport,-6.1257100105285645,141.28199768066406,88.0,OC,PG,PG-WPD,Kiunga,yes,AYKI,UNG,,,https://en.wikipedia.org/wiki/Kiunga_Airport,
60,AYKM,medium_airport,Kerema Airport,-7.96361017227,145.770996094,10.0,OC,PG,PG-GPK,Kerema,yes,AYKM,KMA,,,https://en.wikipedia.org/wiki/Kerema_Airport,
61,AYKV,medium_airport,Kavieng Airport,-2.57940006256,150.807998657,7.0,OC,PG,PG-NIK,Kavieng,yes,AYKV,KVG,,,https://en.wikipedia.org/wiki/Kavieng_Airport,
31837,AYKY,small_airport,Londolovit Airport,-3.04361009598,152.628997803,167.0,OC,PG,PG-NIK,Londolovit,yes,AYKY,LNV,,,https://en.wikipedia.org/wiki/Lihir_Island_Airport,"Lihir Island, Kunaye"
308079,AYLA,closed,Lae Airfield,-6.731666,146.996368,50.0,OC,PG,PG-MPL,Lae,no,AYLA,,,,https://en.wikipedia.org/wiki/Lae_Airfield,"Lae Drome, Lae Aerodrome, Old Lae Airfield"
62,AYMD,medium_airport,Madang Airport,-5.20707988739,145.789001465,20.0,OC,PG,PG-MPM,Madang,yes,AYMD,MAG,,,https://en.wikipedia.org/wiki/Madang_Airport,
63,AYMH,medium_airport,Mount Hagen Kagamuga Airport,-5.826789855957031,144.29600524902344,5388.0,OC,PG,PG-WHM,Mount Hagen,yes,AYMH,HGU,,,https://en.wikipedia.org/wiki/Mount_Hagen_Airport,
64,AYMN,medium_airport,Mendi Airport,-6.14774,143.656998,5680.0,OC,PG,PG-SHM,Mendi,yes,AYMN,MDU,,,https://en.wikipedia.org/wiki/Mendi_Airport,
65,AYMO,medium_airport,Momote Airport,-2.06189,147.423996,12.0,OC,PG,PG-MRL,Manus Island,yes,AYMO,MAS,,,https://en.wikipedia.org/wiki/Momote_Airport,
31981,AYMR,small_airport,Moro Airport,-6.36332988739,143.238006592,2740.0,OC,PG,PG-SHM,Moro,yes,AYMR,MXH,,,https://en.wikipedia.org/wiki/Moro_Airport,
31911,AYMS,small_airport,Misima Island Airport,-10.6892004013,152.837997437,26.0,OC,PG,PG-MBA,Misima Island,yes,AYMS,MIS,,,https://en.wikipedia.org/wiki/Misima_Airport,
308139,AYNG,small_airport,Manguna Airport,-5.577778,151.792333,187.0,OC,PG,PG-EBR,Manguna,no,AYNG,MFO,MGA,,https://en.wikipedia.org/wiki/Manguna_Airport,
66,AYNZ,medium_airport,Nadzab Airport,-6.569803,146.725977,239.0,OC,PG,PG-MPL,Lae,yes,AYNZ,LAE,,,https://en.wikipedia.org/wiki/Lae_Nadzab_Airport,MFO
67,AYPY,large_airport,Port Moresby Jacksons International Airport,-9.44338035583496,147.22000122070312,146.0,OC,PG,PG-NCD,Port Moresby,yes,AYPY,POM,,,https://en.wikipedia.org/wiki/Jacksons_International_Airport,
308586,AYRB,closed,Lakunai Airfield,-4.223,152.185,30.0,OC,PG,PG-EBR,Rabaul,no,AYRB,,,,https://en.wikipedia.org/wiki/Lakunai_Airfield,"RAB, Old Rabaul Airport"
312005,AYSM,small_airport,Samberigi Airstrip,-6.7193,143.9338,3830.0,OC,PG,PG-SHM,Samberigi Mission,no,AYSM,,SGI,,https://en.wikipedia.org/wiki/Samberigi_Airport,
32425,AYTB,small_airport,Tabubil Airport,-5.27861,141.225998,1570.0,OC,PG,PG-WPD,Tabubil,yes,AYTB,TBG,,,https://en.wikipedia.org/wiki/Tabubil_Airport,
307594,AYTI,small_airport,Tapini Airport,-8.35666666667,146.989166667,3100.0,OC,PG,PG-CPM,Tapini,yes,AYTI,TPI,TAP,,https://en.wikipedia.org/wiki/Tapini_Airport,
68,AYTK,medium_airport,Tokua Airport,-4.34046,152.380005,49.0,OC,PG,PG-EBR,Kokopo,yes,AYTK,RAB,,,https://en.wikipedia.org/wiki/Rabaul_Airport,
301673,AYU,small_airport,Aiyura Airport,-6.33805555556,145.904166667,5355.0,OC,PG,PG-EHG,Aiyura Valley,no,AYAY,AYU,AYU,,https://en.wikipedia.org/wiki/Aiyura_Airport,"Ukarumpa, Onmuna"
69,AYVN,medium_airport,Vanimo Airport,-2.6926,141.3028,10.0,OC,PG,PG-SAN,Vanimo,yes,AYVN,VAI,,,https://en.wikipedia.org/wiki/Vanimo_Airport,
70,AYWD,medium_airport,Wapenamanda Airport,-5.6433,143.895004,5889.0,OC,PG,PG-EPW,Wapenamanda,yes,AYWD,WBM,,,https://en.wikipedia.org/wiki/Wapenamanda_Airport,
71,AYWK,medium_airport,Wewak International Airport,-3.58383011818,143.669006348,19.0,OC,PG,PG-ESW,Wewak,yes,AYWK,WWK,,,https://en.wikipedia.org/wiki/Wewak_International_Airport,
307247,AYWT,small_airport,Woitape Airport,-8.54583333333,147.2525,5200.0,OC,PG,PG-CPM,Fatima Mission,yes,AYWT,WTP,WTP,,https://en.wikipedia.org/wiki/Woitape_Airport,
307290,AYWU,small_airport,Wau Airport,-7.345555555560001,146.718611111,3600.0,OC,PG,PG-SAN,Wau,no,AYWU,WUG,WAU,,"https://en.wikipedia.org/wiki/Wau_Airport,_Papua_New_Guinea",
44941,AZ-0001,medium_airport,Zabrat Airport,40.4955422161,49.9768066406,36.0,AS,AZ,AZ-BA,Baku,no,UBTT,ZXT,,,https://en.wikipedia.org/wiki/Zabrat_Airport,
44952,AZ-0011,small_airport,Fizuli Airport,39.594578,47.196128,1209.0,AS,AZ,AZ-FUZ,Fizuli,no,UBBF,FZL,,,https://en.wikipedia.org/wiki/Fuzuli_International_Airport,
16394,AZ06,closed,Dateland Airfield,32.8172,-113.527,450.0,,US,US-AZ,Dateland,no,,,,,https://en.wikipedia.org/wiki/Dateland_Air_Force_Auxiliary_Field,"AZ06, Dateland Air Force Auxiliary Field"
16493,B25,small_airport,Harrold Airport,41.4762,-84.906097,925.0,,US,US-IN,Butler,no,IN16,,IN16,,https://web.archive.org/web/20161208055109/https://en.wikipedia.org/wiki/Harrold_Airport,B25
27301,BCW,medium_airport,Benguera Island Airport,-21.85330009460449,35.43830108642578,,AF,MZ,MZ-I,Benguera Island,yes,,BCW,,,https://en.wikipedia.org/wiki/Benguera_Island_Airport,
301872,BCZ,small_airport,Milyakburra Airport,-13.7808333333,136.201666667,85.0,OC,AU,AU-NT,Bickerton Island,no,,BCZ,YBIC,,https://en.wikipedia.org/wiki/Bickerton_Island,
16495,BDH,small_airport,Willmar Municipal -John L Rice Field,45.11769867,-95.13040161,1126.0,,US,US-MN,Willmar,no,KBDH,ILL,BDH,http://www.willmarmn.gov/residents/travel-transportation/airport,https://en.wikipedia.org/wiki/Willmar_Municipal_Airport,
306974,BE-0005,closed,RAF Castle Camps,52.051389,0.378611,420.0,EU,GB,GB-ENG,Cambridgeshire,no,,,,,https://en.wikipedia.org/wiki/RAF_Castle_Camps,
342121,BE-0018,heliport,Oostdijckbank Radar Post Helipad,51.274444,2.4475,59.0,EU,BE,BE-VWV,Nieuwpoort,no,EBOO,,,,https://events.scia.net/UC-pdf/Oranjewoud-Oostdijckbank.pdf,
111,BG-JAM,medium_airport,Bezmer Air Base,42.4548988342,26.3521995544,509.0,EU,BG,BG-28,Yambol,no,LBIA,JAM,,,https://en.wikipedia.org/wiki/Bezmer_Airbase,LB44
31697,BGAA,medium_airport,Aasiaat Airport,68.7218017578,-52.7846984863,74.0,,GL,GL-U-A,Aasiaat,yes,BGAA,JEG,,http://airgreenland.com/om_rejsen/efter_rejsen/din_destination_/aasiaat/,https://en.wikipedia.org/wiki/Aasiaat_Airport,
43214,BGAG,heliport,Aappilattoq (Qaasuitsup) Heliport,72.88703,-55.596287,42.0,,GL,GL-U-A,Qaasuitsup,yes,BGAG,AOQ,AAP,,https://en.wikipedia.org/wiki/Aappilattoq_(Qaasuitsup)_Heliport,
42247,BGAM,heliport,Tasiilaq Heliport,65.612296,-37.618335,24.0,,GL,GL-U-A,Tasiilaq,yes,BGAM,AGM,AGM,http://airgreenland.com/om_rejsen/efter_rejsen/din_destination_/tasiilaq/,https://en.wikipedia.org/wiki/Tasiilaq_Heliport,Ammassalik Island
35285,BGAP,heliport,Alluitsup Paa Heliport,60.46445,-45.56917,54.0,,GL,GL-U-A,Alluitsup Paa,yes,BGAP,,LLU,,https://en.wikipedia.org/wiki/Alluitsup_Paa_Heliport,
44046,BGAQ,heliport,Aappilattoq (Kujalleq) Heliport,60.148357,-44.286916,30.0,,GL,GL-U-A,Nanortalik,yes,BGAQ,,QUV,,https://en.wikipedia.org/wiki/Aappilattoq_Heliport_(Kujalleq),Aappilattoq (Nanortalik)
44047,BGAS,heliport,Ammassivik Heliport,60.597376,-45.382445,71.0,,GL,GL-U-A,,yes,BGAS,,QUW,,https://en.wikipedia.org/wiki/Ammassivik_Heliport,
35286,BGAT,heliport,Attu Heliport,67.9406628551,-53.6218696833,32.0,,GL,GL-U-A,Attu,yes,BGAT,QGQ,,,https://en.wikipedia.org/wiki/Attu_Heliport,
113,BGBW,medium_airport,Narsarsuaq Airport,61.1604995728,-45.4259986877,112.0,,GL,GL-U-A,Narsarsuaq,yes,BGBW,UAK,,,https://en.wikipedia.org/wiki/Narsarsuaq_Airport,
35299,BGCH,heliport,Qasigiannguit Heliport,68.822815547,-51.1734473705,70.0,,GL,GL-U-A,Qasigiannguit,yes,BGCH,JCH,,http://airgreenland.com/om_rejsen/efter_rejsen/din_destination_/qasigiannguit/,https://en.wikipedia.org/wiki/Qasigiannguit_Heliport,
30839,BGCO,small_airport,Neerlerit Inaat Airport,70.7431030273,-22.6504993439,45.0,,GL,GL-U-A,Neerlerit Inaat,yes,BGCO,CNP,,,https://en.wikipedia.org/wiki/Nerlerit_Inaat_Airport,Constable Point
44062,BGFD,heliport,Narsaq Kujalleq Heliport,60.004694,-44.656935,44.0,,GL,GL-U-A,Narsaq Kujalleq,yes,BGFD,,QFN,,https://en.wikipedia.org/wiki/Narsarmijit_Heliport,
114,BGGH,medium_airport,Godthaab / Nuuk Airport,64.190903,-51.678101,283.0,,GL,GL-U-A,Nuuk,yes,BGGH,GOH,,,https://en.wikipedia.org/wiki/Nuuk_Airport,Nuussuaq
35300,BGGN,heliport,Qeqertarsuaq Heliport,69.251181993,-53.5148763657,9.0,,GL,GL-U-A,Qeqertarsuaq Airport,yes,BGGN,JGO,,http://airgreenland.com/om_rejsen/efter_rejsen/din_destination_/qeqertarsuaq/,https://en.wikipedia.org/wiki/Qeqertarsuaq_Heliport,
43215,BGIA,heliport,Ikerasak Heliport,70.4981453548,-51.3030838966,66.0,,GL,GL-U-A,Ikerasak,yes,BGIA,,IKE,,https://en.wikipedia.org/wiki/Ikerasak_Heliport,
44054,BGIG,heliport,Iginniarfik,68.1472255861,-53.1735277176,50.0,,GL,GL-U-A,Iginniarfik,yes,BGIG,QFI,,,https://en.wikipedia.org/wiki/Iginniarfik_Heliport,
35290,BGIK,heliport,Ikerassaarsuk Heliport,68.14088100629999,-53.4414589405,165.0,,GL,GL-U-A,Ikerassaarsuk,yes,BGIK,QRY,,,https://en.wikipedia.org/wiki/Ikerasaarsuk_Heliport,
35291,BGIL,heliport,Ilimanaq Heliport,69.0809150007,-51.1143153906,52.0,,GL,GL-U-A,Ilimanaq,yes,BGIL,XIQ,,,https://en.wikipedia.org/wiki/Ilimanaq_Heliport,
44056,BGIN,heliport,Innarsuit Heliport,73.199895,-56.010817,95.0,,GL,GL-U-A,Innarsuit,yes,BGIN,IUI,INN,,https://en.wikipedia.org/wiki/Innaarsuit_Heliport,
44057,BGIS,heliport,Isortoq Heliport,65.547792,-38.976552,92.0,,GL,GL-U-A,Isortoq,yes,BGIS,IOQ,ISO,,https://en.wikipedia.org/wiki/Isortoq_Heliport,
35289,BGIT,heliport,Ikamiut Heliport,68.6342530984,-51.8322622776,49.0,,GL,GL-U-A,Ikamiut,yes,BGIT,QJI,,,https://en.wikipedia.org/wiki/Ikamiut_Heliport,
35298,BGJH,heliport,Qaqortoq Heliport,60.7156841553,-46.0299186409,53.0,,GL,GL-U-A,Qaqortoq,yes,BGJH,JJU,,http://airgreenland.com/om_rejsen/efter_rejsen/din_destination_/qaqortoq/,https://en.wikipedia.org/wiki/Qaqortoq_Heliport,
31694,BGJN,small_airport,Ilulissat Airport,69.2432022095,-51.0570983887,95.0,,GL,GL-U-A,Ilulissat,yes,BGJN,JAV,,,https://en.wikipedia.org/wiki/Ilulissat_Airport,
35292,BGKA,heliport,Kangaatsiaq Heliport,68.3126574861,-53.4602075815,17.0,,GL,GL-U-A,Kangaatsiaq,yes,BGKA,QPW,,,https://en.wikipedia.org/wiki/Kangaatsiaq_Heliport,
31786,BGKK,small_airport,Kulusuk Airport,65.573600769,-37.1236000061,117.0,,GL,GL-U-A,Kulusuk,yes,BGKK,KUS,,,https://en.wikipedia.org/wiki/Kulusuk_Airport,"Kap Dan, BGKD"
43224,BGKL,heliport,Upernavik Kujalleq Heliport,72.1527425265,-55.5309855938,92.0,,GL,GL-U-A,Upernavik Kujalleq,yes,BGKL,,UPK,,https://en.wikipedia.org/wiki/Upernavik_Kujalleq_Heliport,
44060,BGKM,heliport,Kuummiut Heliport,65.863935,-36.997919,89.0,,GL,GL-U-A,Kuummiut,yes,BGKM,KUZ,KMT,,https://en.wikipedia.org/wiki/Kuummiit_Heliport,
43218,BGKQ,heliport,Kullorsuaq Heliport,74.57805,-57.226828,148.0,,GL,GL-U-A,Kullorsuaq,yes,BGKQ,KHQ,KLQ,,https://en.wikipedia.org/wiki/Kullorsuaq_Heliport,
43217,BGKS,heliport,Kangersuatsiaq Heliport,72.381092,-55.536586,112.0,,GL,GL-U-A,Kangersuatsiaq,yes,BGKS,KGQ,KAQ,,https://en.wikipedia.org/wiki/Kangersuatsiaq_Heliport,
35293,BGKT,heliport,Kitsissuarsuit Heliport,68.85792599759999,-53.1232953072,18.0,,GL,GL-U-A,Kitsissuarsuit,yes,BGKT,QJE,,,https://en.wikipedia.org/wiki/Kitsissuarsuit_Heliport,
43216,BGLL,heliport,Illorsuit Heliport,71.2419440428,-53.5628771782,154.0,,GL,GL-U-A,Illorsuit,no,BGLL,,ILL,,https://en.wikipedia.org/wiki/Illorsuit_Heliport,
299843,BGMI,small_airport,Station Nord Landing Strip,81.603622,-16.681599,35.0,,GL,GL-U-A,Station Nord,no,BGMI,,,,"https://en.wikipedia.org/wiki/Nord,_Greenland",
299107,bgmo,heliport,Moriusaq Heliport,76.7534922147,-69.8450553417,44.0,,GL,GL-U-A,,yes,BGMO,,MOR,,https://en.wikipedia.org/wiki/Moriusaq_Heliport,
31711,BGMQ,small_airport,Maniitsoq Airport,65.4124984741,-52.9393997192,91.0,,GL,GL-U-A,Maniitsoq,yes,BGMQ,JSU,,,https://en.wikipedia.org/wiki/Maniitsoq_Airport,
35296,BGNK,heliport,Niaqornaarsuk Heliport,68.236381,-52.852148,152.0,,GL,GL-U-A,Niaqornaarsuk,yes,BGNK,,,,https://en.wikipedia.org/wiki/Niaqornaarsuk_Heliport,QMK
35294,BGNN,heliport,Nanortalik Heliport,60.1418839759,-45.232976675,17.0,,GL,GL-U-A,Nanortalik,no,BGNN,JNN,,,https://en.wikipedia.org/wiki/Nanortalik_Heliport,
43219,BGNQ,heliport,Nuugaatsiaq Heliport,71.5387687528,-53.2050383091,57.0,,GL,GL-U-A,Nuugaatsiaq,yes,BGNQ,,NUG,,https://en.wikipedia.org/wiki/Nuugaatsiaq_Heliport,
35295,BGNS,heliport,Narsaq Heliport,60.9172827256,-46.059923172,83.0,,GL,GL-U-A,Narsaq,yes,BGNS,JNS,,http://airgreenland.com/om_rejsen/efter_rejsen/din_destination_/narsaq/,https://en.wikipedia.org/wiki/Narsaq_Heliport,
44063,BGNT,heliport,Niaqornat Heliport,70.789385,-53.662945,10.0,,GL,GL-U-A,Niaqornat,yes,BGNT,NIQ,NIA,,https://en.wikipedia.org/wiki/Niaqornat_Heliport,
43220,BGNU,heliport,Nuussuaq Heliport,74.109853,-57.065037,184.0,,GL,GL-U-A,Nuussuaq,yes,BGNU,NSQ,NUS,,https://en.wikipedia.org/wiki/Nuussuaq_Heliport,
44065,BGPT,small_airport,Paamiut Airport,62.0147361755,-49.6709365845,120.0,,GL,GL-U-A,Paamiut,yes,BGPT,JFR,,,https://en.wikipedia.org/wiki/Paamiut_Airport,
43221,BGQE,heliport,Qeqertaq Heliport,69.9958611087,-51.3009166718,69.0,,GL,GL-U-A,Qeqertaq,yes,BGQE,QQT,,,https://en.wikipedia.org/wiki/Qeqertaq_Heliport,
32004,BGQQ,small_airport,Qaanaaq Airport,77.4886016846,-69.3887023926,51.0,,GL,GL-U-A,Qaanaaq,yes,BGQQ,NAQ,,,https://en.wikipedia.org/wiki/Qaanaaq_Airport,
44058,BGSC,heliport,Ittoqqortoormiit Heliport,70.4882288244,-21.9716799259,238.0,,GL,GL-U-A,Ittoqqortoormiit,yes,BGSC,OBY,,,https://en.wikipedia.org/wiki/Ittoqqortoormiit_Heliport,
115,BGSF,medium_airport,Kangerlussuaq Airport,67.0122218992,-50.7116031647,165.0,,GL,GL-U-A,Kangerlussuaq,yes,BGSF,SFJ,,,https://en.wikipedia.org/wiki/Kangerlussuaq_Airport,Sondre Stromfjord
44069,BGSG,heliport,Sermiligaaq Heliport,65.9059197626,-36.3782536983,33.0,,GL,GL-U-A,Ittoqqortoormiit,yes,BGSG,,SMG,,https://en.wikipedia.org/wiki/Sermiligaaq_Heliport,
44070,BGSI,heliport,Siorapaluk Heliport,77.786517,-70.638657,102.0,,GL,GL-U-A,Siorapaluk,yes,BGSI,SRK,SIO,,https://en.wikipedia.org/wiki/Siorapaluk_Heliport,
323783,BGSO,heliport,Saarloq Heliport,60.537778,-46.024722,,,GL,GL-U-A,,no,BGSO,QOQ,,,https://en.wikipedia.org/wiki/Saarloq_Heliport,
35301,BGSQ,heliport,Saqqaq Heliport,70.011448,-51.932142,38.0,,GL,GL-U-A,Saqqaq,yes,BGSQ,,QUP,,https://en.wikipedia.org/wiki/Saqqaq_Heliport,
31700,BGSS,medium_airport,Sisimiut Airport,66.951302,-53.729301,33.0,,GL,GL-U-A,Sisimiut,yes,BGSS,JHS,,https://www.mit.gl/en/todays-flights/airports/sisimiut-airport/,https://en.wikipedia.org/wiki/Sisimiut_Airport,
43222,BGST,heliport,Saattut Heliport,70.811172,-51.63129,131.0,,GL,GL-U-A,Saattut,yes,BGST,,SAA,,https://en.wikipedia.org/wiki/Saattut_Heliport,
44068,BGSV,heliport,Savissivik Heliport,76.018613,-65.117683,24.0,,GL,GL-U-A,Savissivik,yes,BGSV,SVR,SAV,,https://en.wikipedia.org/wiki/Savissivik_Heliport,
44075,BGTA,heliport,Tasiusaq (Qaasuitsup) Heliport,73.373055,-56.06028,181.0,,GL,GL-U-A,Upernavik,no,BGTA,TQA,,,https://en.wikipedia.org/wiki/Tasiusaq_Heliport_(Qaasuitsup),
116,BGTL,medium_airport,Thule Air Base,76.5311965942,-68.7032012939,251.0,,GL,GL-U-A,Thule,yes,BGTL,THU,,,https://en.wikipedia.org/wiki/Thule_Air_Base,Pituffik
44076,BGTN,heliport,Tiniteqilaaq Heliport,65.892027,-37.783409,15.0,,GL,GL-U-A,Tiniteqilaaq,yes,BGTN,TQI,TNT,,https://en.wikipedia.org/wiki/Tiniteqilaaq_Heliport,
44074,BGTQ,heliport,Tasiusaq (Kujalleq) Heliport,60.1943053097,-44.8134469986,21.0,,GL,GL-U-A,Nanortalik,yes,BGTQ,,,,https://en.wikipedia.org/wiki/Tasiusaq_Heliport_(Kujalleq),
31713,BGUK,small_airport,Upernavik Airport,72.7901992798,-56.1305999756,414.0,,GL,GL-U-A,Upernavik,yes,BGUK,JUV,,,https://en.wikipedia.org/wiki/Upernavik_Airport,
43225,BGUM,heliport,Uummannaq Heliport,70.6804279261,-52.1116304398,50.0,,GL,GL-U-A,Uummannaq,yes,BGUM,UMD,,http://airgreenland.com/om_rejsen/efter_rejsen/din_destination_/uummannaq/,https://en.wikipedia.org/wiki/Uummannaq_Heliport,
31709,BGUQ,small_airport,Qaarsut Airport,70.7341995239,-52.6962013245,289.0,,GL,GL-U-A,Uummannaq,yes,BGUQ,JQA,,,https://en.wikipedia.org/wiki/Qaarsut_Airport,
43223,BGUT,heliport,Ukkusissat Heliport,71.049438,-51.890016,223.0,,GL,GL-U-A,Ukkusissat,yes,BGUT,JUK,UKK,,https://en.wikipedia.org/wiki/Ukkusissat_Heliport,
30705,BHL,small_airport,Bahía de los Ángeles Airport,28.9786,-113.560997,34.0,,MX,MX-BCN,Ensenada,no,,BHL,BAX,,https://en.wikipedia.org/wiki/Bah%C3%ADa_de_los_%C3%81ngeles_Airport,
117,BIAR,medium_airport,Akureyri Airport,65.66000366210938,-18.07270050048828,6.0,EU,IS,IS-6,Akureyri,yes,BIAR,AEY,,,https://en.wikipedia.org/wiki/Akureyri_Airport,
119,BIEG,medium_airport,Egilsstaðir Airport,65.2833023071289,-14.401399612426758,76.0,EU,IS,IS-7,Egilsstaðir,yes,BIEG,EGS,,,https://en.wikipedia.org/wiki/Egilssta%C3%B0ir_Airport,
31058,BIFF,small_airport,Fáskrúðsfjörður Airport,64.931456,-14.047957,15.0,EU,IS,IS-7,Fáskrúðsfjörður,no,BIFF,FAS,,,https://en.wikipedia.org/wiki/F%C3%A1skr%C3%BA%C3%B0sfj%C3%B6r%C3%B0ur_Airport,Faskrudsfjordur
120,BIHN,medium_airport,Hornafjörður Airport,64.295601,-15.2272,24.0,EU,IS,IS-8,Höfn,yes,BIHN,HFN,,,https://en.wikipedia.org/wiki/Hornafj%C3%B6r%C3%B0ur_Airport,
121,BIHU,medium_airport,Húsavík Airport,65.952301,-17.426001,48.0,EU,IS,IS-6,Húsavík,yes,BIHU,HZK,,,https://en.wikipedia.org/wiki/H%C3%BAsav%C3%ADk_Airport,
122,BIIS,medium_airport,Ísafjörður Airport,66.05809783935547,-23.135299682617188,8.0,EU,IS,IS-4,Ísafjörður,yes,BIIS,IFJ,,,https://en.wikipedia.org/wiki/%C3%8Dsafj%C3%B6r%C3%B0ur_Airport,
123,BIKF,large_airport,Keflavik International Airport,63.985001,-22.6056,171.0,EU,IS,IS-2,Reykjavík,yes,BIKF,KEF,,https://www.isavia.is/en/keflavik-airport,https://en.wikipedia.org/wiki/Keflav%C3%ADk_International_Airport,"Keflavik Naval Air Station,REK"
32246,BIKR,small_airport,Sauðárkrókur Airport,65.73169708249999,-19.5727996826,8.0,EU,IS,IS-5,Sauðárkrókur,no,BIKR,SAK,,,https://en.wikipedia.org/wiki/Sau%C3%B0%C3%A1rkr%C3%B3kur_Airport,
124,BIPA,small_airport,Patreksfjörður Airport,65.555801,-23.965,11.0,EU,IS,IS-4,Patreksfjörður,no,BIPA,PFJ,,,https://en.wikipedia.org/wiki/Patreksfj%C3%B6r%C3%B0ur_Airport,
125,BIRK,medium_airport,Reykjavik Airport,64.1299972534,-21.9405994415,48.0,EU,IS,IS-1,Reykjavik,yes,BIRK,RKV,,,https://en.wikipedia.org/wiki/Reykjav%C3%ADk_Airport,REK
126,BISI,medium_airport,Siglufjörður Airport,66.137847,-18.908157,10.0,EU,IS,IS-6,Siglufjörður,no,BISI,SIJ,,,https://en.wikipedia.org/wiki/Siglufj%C3%B6r%C3%B0ur_Airport,
42246,BITH,closed,Sauðanes Airport,66.251859,-15.273914,15.0,EU,IS,IS-6,Þórshöfn,no,BITH,,,,https://en.wikipedia.org/wiki/%C3%9E%C3%B3rsh%C3%B6fn_Airport,"THO, Thorshofn"
127,BITN,small_airport,Þórshöfn Airport,66.218498,-15.3356,65.0,EU,IS,IS-6,Þórshöfn,yes,BITN,THO,,,https://en.wikipedia.org/wiki/Thorshofn_Airport,Thorshofn
128,BIVM,medium_airport,Vestmannaeyjar Airport,63.42430114746094,-20.27890014648437,326.0,EU,IS,IS-8,Vestmannaeyjar,no,BIVM,VEY,,,https://en.wikipedia.org/wiki/Vestmannaeyjar_Airport,
312172,BJT,seaplane_base,Bentota River Waterdrome,6.431,79.996,,AS,LK,LK-1,Bentota,yes,,BJT,,,https://en.wikipedia.org/wiki/Bentota_River_Airport,
4614,BKPR,medium_airport,Priština Adem Jashari International Airport,42.5728,21.035801,1789.0,EU,XK,XK-01,Prishtina,yes,BKPR,PRN,,http://www.airportpristina.com/,https://en.wikipedia.org/wiki/Pristina_International_Airport,"LYPR, Pristina, Slatina Air Base"
302248,bl,closed,RNAS Pembroke/RNAS Milton/RAF Carew Cheriton,51.690117088,-4.812355041499999,,,GB,GB-ENG,Pembrokeshire,no,,,,,https://en.wikipedia.org/wiki/RAF_Carew_Cheriton,
302039,BLW,closed,Bellows AFS (Bellows Field),21.370833,-157.713887,5.0,,US,US-HI,Waimanalo,no,,,,,https://en.wikipedia.org/wiki/Bellows_Air_Force_Station,"BLW, XBEL"
44079,BM-0001,closed,RNAS Boaz Island,32.320801,-64.841103,,,BM,BM-U-A,Sandys,no,,,,http://www.bermuda-online.org/rnd2.htm,https://en.wikipedia.org/wiki/RNAS_Boaz_Island_(HMS_Malabar),HMS Malabar
44080,BM-0002,closed,Naval Air Station Bermuda Annex,32.269871,-64.851616,,,BM,BM-U-A,Sandys,no,,,,,https://en.wikipedia.org/wiki/Naval_Air_Station_Bermuda_Annex,USN NOB
348371,BM-0003,closed,Darrell's Island Seaplane Base,32.27513,-64.81915,,,BM,BM-U-A,Warwick,no,,,,,"https://en.wikipedia.org/wiki/Darrell%27s_Island,_Bermuda",
28482,BMQ,small_airport,Bamburi Airport,-3.983363,39.730982,52.0,AF,KE,KE-300,Bamburi,yes,HKBM,BMQ,,,https://en.wikipedia.org/wiki/Bamburi_Airport,
41591,BO-0001,small_airport,Rurenabaque Airport,-14.4279003143,-67.4968032837,676.0,SA,BO,BO-B,Rurenabaque,no,SLRQ,RBQ,,,https://en.wikipedia.org/wiki/Rurrenabaque_Airport,
16503,BOF,heliport,Bolling Air Force Base,38.854049,-77.012046,20.0,,US,US-DC,Washington,no,KBOF,BOF,BOF,,https://en.wikipedia.org/wiki/Joint_Base_Anacostia-Bolling,
16504,BOK,small_airport,Brookings Airport,42.0746,-124.290001,459.0,,US,US-OR,Brookings,no,KBOK,BOK,BOK,,https://en.wikipedia.org/wiki/Brookings_Airport,
301979,BOT,small_airport,Bosset Airport,-7.237257,141.1063222,80.0,OC,PG,PG-WPD,Bosset,yes,AYET,BOT,BST,,https://en.wikipedia.org/wiki/Bosset_Airport,Boset
44628,BR-0013,closed,Fazenda Campo Oliva - Nhecolândia,-18.500999,-55.450298,425.0,SA,BR,BR-MS,Corumbá,no,,,,http://www.panoramio.com/photo/21226527,http://www.panoramio.com/photo/21226527,http://www.panoramio.com/photo/21226527
299116,BR-0014,closed,Nova Jacuí Airport,-29.1180555556,-53.2158333333,1070.0,SA,BR,BR-RS,Salto do Jacuí,no,,,,,http://pt.wikipedia.org/wiki/Aeroporto_Nova_Jacu%C3%AD,
321010,BR-0121,small_airport,Bom Despacho Airport,-19.687863,-45.269677,2411.0,SA,BR,BR-MG,Bom Despacho,no,SNGQ,,MG0148,,https://pt.wikipedia.org/wiki/Aeroporto_de_Bom_Despacho,
321011,BR-0122,small_airport,Vacaria Novo Airport,-28.43248,-51.023322,2953.0,SA,BR,BR-RS,Vacaria,no,SNEE,,SNEE,,https://pt.wikipedia.org/wiki/Aeroporto_de_Vacaria_(novo),
333222,BR-0569,medium_airport,Glauber de Andrade Rocha Airport,-14.907885,-40.914804,2940.0,SA,BR,BR-BA,Vitória da Conquista,yes,SBVC,VDC,BA0005,,https://en.wikipedia.org/wiki/Glauber_Rocha_Airport,SSVC
335473,BR-0900,closed,Presidente Médici International Airport,-9.992007,-67.8011,451.0,SA,BR,BR-AC,Rio Branco,no,,,,,https://en.wikipedia.org/wiki/Presidente_Médici_International_Airport,RBR
340053,BR-1356,medium_airport,Planalto Serrano Regional Airport,-27.634128,-50.358253,2887.0,SA,BR,BR-SC,Correia Pinto,no,SNCP,,SC0181,https://infracea.com.br/aeroporto-regional-do-planalto-serrano-correia-pinto/,https://pt.wikipedia.org/wiki/Aeroporto_de_Correia_Pinto,
30637,BR-ALT,small_airport,Alenquer Municipal Airport,-1.917,-54.7231,55.0,SA,BR,BR-PA,Alenquer,no,SDWQ,ALT,PA0027,,https://en.wikipedia.org/wiki/Alenquer_Airport,
309771,BS-0006,closed,Castaway Cay (Gorda Cay) Airstrip,26.091254,-77.540721,5.0,,BS,BS-SO,Castaway Cay,no,MYAG,,MYAG,,https://en.wikipedia.org/wiki/Castaway_Cay,
336133,BS-0009,closed,Andros Central / Twin Lakes Airport,24.725569,-77.987201,,,BS,BS-CS,Twin Lakes,no,,,,,https://en.wikipedia.org/wiki/Andros_Central_Airport,
301802,BSP,small_airport,Bensbach Airport,-8.85805555556,141.259444444,30.0,OC,PG,PG-WPD,Bensbach,no,AYBH,BSP,BEN,,https://en.wikipedia.org/wiki/Bensbach_Airport,
46171,BUL,small_airport,Bulolo Airport,-7.216286671410001,146.649541855,2240.0,OC,PG,PG-MPL,Bulolo,no,AYBU,BUL,BUO,,https://en.wikipedia.org/wiki/Bulolo_Airport,
317484,BW-0003,small_airport,Seronga Airport,-18.823303,22.422619,3240.0,AF,BW,BW-NW,Seronga,no,FBSG,,,,https://en.wikipedia.org/wiki/Seronga_Airport,FB71
31654,BW-HUK,small_airport,Hukuntsi Airport,-23.9897,21.758101,3720.0,AF,BW,BW-KG,Hukuntsi,no,FBHK,HUK,,,https://en.wikipedia.org/wiki/Hukuntsi_Airport,FB24
34946,BY-0001,medium_airport,Orsha Airport - Balbasovo Air Base,54.439999,30.2967,620.0,EU,BY,BY-VI,Orsha,no,UMIO,TXC,,,https://en.wikipedia.org/wiki/Balbasovo,"Balbasava, Bolbasovo, Orsha Southwest"
34951,BY-0002,closed,Bobr Air Base,54.375,29.376699,646.0,EU,BY,BY-MI,Lomskoe,no,,,,,https://en.wikipedia.org/wiki/Bobr_%28air_base%29,Bobr East
34952,BY-0003,medium_airport,Bobrovichi Air Base,52.27830123901367,29.36000061035156,440.0,EU,BY,BY-HO,Kalinovichi,no,,,,,https://en.wikipedia.org/wiki/Bobrovichi,
34957,BY-0004,small_airport,Borovtsy Air Base,55.6082992554,28.6783008575,456.0,EU,BY,BY-VI,Polatsk,no,,,,,https://en.wikipedia.org/wiki/Borovitsy,"Borovitsky Air Base, Аэродром Боровцы"
43023,BY-0005,closed,Polotsk Airfield,55.411667,28.748333,469.0,EU,BY,BY-VI,Polotsk,no,,,XMIP,,https://en.wikipedia.org/wiki/Polotsk_Airport,"Betskoye Airport, Betskoe Airport, Polotsk South Airport, Аэрапорт Полацк, Аэропорт Бецкое, Аэропорт Полоцк"
35057,BY-1095,closed,Postavy Air Base,55.116699,26.7617,472.0,EU,BY,BY-VI,Postavy,no,,,,,https://en.wikipedia.org/wiki/Postavy,
35030,BY-1210,closed,Maladzyechna Air Base,54.24829864501953,26.871700286865234,682.0,EU,BY,BY-MI,Maladzyechna,no,,,,,https://en.wikipedia.org/wiki/Maladzyechna_(air_base),
35112,BY-3111,closed,Zhurzhevo Air Base,55.255001,30.2467,636.0,EU,BY,BY-VI,Vitebsk,no,,,,,https://en.wikipedia.org/wiki/Vitebsk_(air_base),"Vitebsk Severny Air Base, Vitebsk North Air Base, Аэродром Журжево, Аэродром Витебск Северный"
35060,BY-4247,small_airport,Pribytki Air Base,52.30500030517578,31.163299560546875,456.0,EU,BY,BY-HO,Gomel,no,,,,,https://en.wikipedia.org/wiki/Pribytki,
35083,BY-7836,closed,Smarhon Air Base,54.52330017089844,26.306699752807617,558.0,EU,BY,BY-HR,Smorgon,no,,,,,https://en.wikipedia.org/wiki/Smarhon_(air_base),
35026,BY-9934,small_airport,Luninets Air Base,52.275002,26.775,472.0,EU,BY,BY-BR,Luninets,no,UMNL,,,,https://en.wikipedia.org/wiki/Luninets_(air_base),
309572,BZ-0001,small_airport,Chan Chich Airstrip,17.5664,-89.0468,404.0,,BZ,BZ-OW,Gallon Jug,no,,,,,https://en.wikipedia.org/wiki/Chan_Chich_Airstrip,
44573,BZ-BCV,small_airport,Hector Silva Airstrip,17.269603,-88.776496,150.0,,BZ,BZ-CY,Belmopan,yes,MZBP,BCV,,http://www.flightstats.com/go/Airport/airportDetails.do?airportCode=BCV,https://en.wikipedia.org/wiki/Hector_Silva_Airstrip,Belmopan Airport
42216,BZ-BGK,medium_airport,Big Creek Airport,16.519369,-88.407913,22.0,,BZ,BZ-SC,Big Creek,yes,MZBG,BGK,,,https://en.wikipedia.org/wiki/Big_Creek_Airport_(Belize),
30861,BZ-CUK,medium_airport,Caye Caulker Airport,17.735015,-88.032862,2.0,,BZ,BZ-BZ,Caye Caulker,yes,MZCK,CUK,,,https://en.wikipedia.org/wiki/Caye_Caulker_Airport,
30867,BZ-CYC,medium_airport,Caye Chapel Airport,17.683792,-88.044985,3.0,,BZ,BZ-BZ,Caye Chapel,yes,MZCP,CYC,,,https://en.wikipedia.org/wiki/Caye_Chapel_Airport,
42209,BZ-CZH,medium_airport,Corozal Municipal Airport,18.382200241088867,-88.41190338134766,40.0,,BZ,BZ-CZL,Corozal,yes,,CZH,,,https://en.wikipedia.org/wiki/Corozal_Airport,Ranchito Airport
42207,BZ-DGA,medium_airport,Dangriga Airport,16.98250961303711,-88.23098754882812,508.0,,BZ,BZ-SC,Dangriga,yes,,DGA,,,https://en.wikipedia.org/wiki/Dangriga_Airport,Stann Creek Airport
42213,BZ-INB,small_airport,Independence Airport,16.5345,-88.441299,18.0,,BZ,BZ-SC,Independence,no,MZSV,INB,,,https://en.wikipedia.org/wiki/Independence_Airport_(Belize),"Savannah,  Mango Creek"
42214,BZ-MDB,small_airport,Melinda Airport,17.0042991638,-88.30419921880001,101.0,,BZ,BZ-SC,Melinda,no,,MDB,,,https://en.wikipedia.org/wiki/Melinda_Airport,
42212,BZ-ORZ,small_airport,Orange Walk Airport,18.0467662811,-88.58386993410001,111.0,,BZ,BZ-OW,Orange Walk,no,,ORZ,,,https://en.wikipedia.org/wiki/Orange_Walk_Airport,
42217,BZ-PLJ,medium_airport,Placencia Airport,16.536956787109375,-88.36151123046875,3.0,,BZ,BZ-SC,Placencia,yes,,PLJ,,,https://en.wikipedia.org/wiki/Placencia_Airport,
35305,BZ-PND,medium_airport,Punta Gorda Airport,16.102399826,-88.80829620360001,7.0,,BZ,BZ-TOL,Punta Gorda,yes,,PND,,,https://en.wikipedia.org/wiki/Punta_Gorda_Airport,
42210,BZ-SJX,medium_airport,Sartaneja Airport,18.35610008239746,-88.13079833984375,3.0,,BZ,BZ-CZL,Sartaneja,yes,,SJX,,,https://en.wikipedia.org/wiki/Sartaneja_Airport,
32370,BZ-SPR,medium_airport,John Greif II Airport,17.9139,-87.9711,4.0,,BZ,BZ-CY,San Pedro,yes,MZSP,SPR,,,https://en.wikipedia.org/wiki/San_Pedro_Airport,
42218,BZ-SQS,small_airport,Matthew Spain Airport,17.1859,-89.0098,199.0,,BZ,BZ-CY,San Ignacio,no,MZCF,SQS,,,https://en.wikipedia.org/wiki/Matthew_Spain_Airport,Central Farm Airstrip
42208,BZ-SVK,small_airport,Silver Creek Airport,16.728338,-88.369174,216.0,,BZ,BZ-SC,Silver Creek,no,MZKT,SVK,,,https://en.wikipedia.org/wiki/Silver_Creek_Airport,
42215,BZ-TZA,medium_airport,Sir Barry Bowen Municipal Airport,17.51639,-88.194443,8.0,,BZ,BZ-BZ,Belize City,yes,MZBE,TZA,,,https://en.wikipedia.org/wiki/Belize_City_Municipal_Airport,Belize City Municipal
27300,BZB,medium_airport,Bazaruto Island Airport,-21.5411,35.4729,,AF,MZ,MZ-I,Bazaruto Island,no,,BZB,,,https://en.wikipedia.org/wiki/Bazaruto_Island_Airport,
16529,C97,small_airport,Lowell Airport,41.230098724365234,-87.50769805908203,675.0,,US,US-IN,Lowell,no,C97,,C97,,https://en.wikipedia.org/wiki/Lowell_Airport,
16530,C98,small_airport,Lake Village Airport,41.148114,-87.459925,644.0,,US,US-IN,Lake Village,no,KC98,,C98,,https://en.wikipedia.org/wiki/Lake_Village_Airport,
35388,CA-0003,closed,RCAF Station Buttress,50.23609924316406,-105.5479965209961,,,CA,CA-SK,Moose Jaw,no,,,,,https://en.wikipedia.org/wiki/Buttress%2C_Saskatchewan,
35389,CA-0004,closed,RCAF Station Aylmer,42.80590057373047,-80.94419860839844,,,CA,CA-ON,Aylmer,no,,,,,https://en.wikipedia.org/wiki/RCAF_Station_Aylmer,
35390,CA-0005,closed,RCAF Station Lincoln Park,51.0093994140625,-114.13300323486328,,,CA,CA-AB,Calgary,no,,,,,https://en.wikipedia.org/wiki/RCAF_Station_Calgary,RCAF Station Calgary
35391,CA-0006,closed,RCAF Station Carberry,49.872100830078125,-99.39730072021484,,,CA,CA-MB,Carberry,no,,,,,https://en.wikipedia.org/wiki/RCAF_Station_Carberry,
35392,CA-0007,closed,RCAF Station Fingal (No. 4 Bombing and Gunnery School),42.680099487300005,-81.32730102539999,,,CA,CA-ON,Fingal,no,,,,,https://en.wikipedia.org/wiki/RCAF_Station_Fingal,BCATP
35393,CA-0008,closed,RCAF Station Mossbank,49.92169952392578,-105.8730010986328,,,CA,CA-SK,Mossbank,no,,,,,https://en.wikipedia.org/wiki/RCAF_Station_Mossbank,
35394,CA-0009,closed,Hamlin Airport,52.880001068115234,-108.28900146484376,,,CA,CA-SK,North Battleford,no,,,CJD4,,https://en.wikipedia.org/wiki/North_Battleford/Hamlin_Airport,
35142,CA-0010,closed,Maple Airport,43.8433565229,-79.5260703564,,,CA,CA-ON,Vaughan,no,,,,,https://en.wikipedia.org/wiki/Maple_Airport,Gillies Flying Service
35148,CA-0011,closed,King City Airport,43.905799865722656,-79.55960083007812,,,CA,CA-ON,King City,no,,,,,https://en.wikipedia.org/wiki/King_City_Airport,
35395,CA-0012,closed,RCAF Detachment Granum,49.808998,-113.445,3255.0,,CA,CA-AB,Granum,no,,,,,https://en.wikipedia.org/wiki/RCAF_Station_Fort_Macleod,"BCATP, RCAF"
35396,CA-0013,closed,RCAF Pennfield Ridge,45.1265983581543,-66.69300079345703,,,CA,CA-NB,Pennfield,no,,,,,https://en.wikipedia.org/wiki/RCAF_Station_Pennfield_Ridge,
35397,CA-0014,closed,RCAF Station Dafoe,51.93209838867188,-104.56700134277344,,,CA,CA-SK,Dafoe,no,,,,,https://en.wikipedia.org/wiki/RCAF_Station_Dafoe,
35358,CA-0015,small_airport,Maxville Airport,45.296501,-74.8536,,,CA,CA-ON,Maxville,no,CMX2,,CMX2,,https://en.wikipedia.org/wiki/Maxville_Aerodrome,
39682,CA-0036,closed,Bay d'Espoir Airport,47.958261,-55.854492,718.0,,CA,CA-NL,Saint-Veronica's,no,,,CX4,,https://en.wikipedia.org/wiki/Bay_d%27Espoir_Aerodrome,
39707,CA-0061,closed,Bristol Field Airport,47.3101399785,-53.9902496338,28.0,,CA,CA-NL,Argentia,no,,,,,https://en.wikipedia.org/wiki/McAndrew_AFB,"Naval Station Argentia, McAndrew Air Force Base"
42746,CA-0110,closed,Cap-de-la-Madeleine,46.38056945800781,-72.53002166748047,,,CA,CA-QC,,no,,,,,https://en.wikipedia.org/wiki/List_of_British_Commonwealth_Air_Training_Plan_facilities_in_Canada,"bcatp,military"
349729,CA-0120,closed,RCAF Detachment Shepard,50.95,-113.9667,3400.0,,CA,CA-AB,Shepard,no,,,,,https://en.wikipedia.org/wiki/Calgary_air_force_stations,"BCATP, RCAF"
39817,CA-0171,closed,Isachsen Airport,78.79255,-103.549297,202.0,,CA,CA-NU,,no,,,,,https://en.wikipedia.org/wiki/Isachsen,IATA: YIC
39842,CA-0196,closed,Komakuk Beach Airport,69.596348,-140.172507,45.0,,CA,CA-YT,Komakuk Beach,no,,,,,"https://en.wikipedia.org/wiki/Komakuk_Beach,_Yukon","YJA, CYJA"
39859,CA-0213,closed,Lupin Airport,65.7666702271,-111.25,1608.0,,CA,CA-NU,Lupin Mine,no,CYWO,YWO,,,https://en.wikipedia.org/wiki/Lupin_Airport,
39926,CA-0280,closed,RCAF Station Pearce,49.835088,-113.241332,3110.0,,CA,CA-AB,Pearce,no,,,,,https://en.wikipedia.org/wiki/RCAF_Station_Pearce,"BCATP, RCAF"
39943,CA-0297,small_airport,Primrose Airport,55.390002,-111.1198,2307.0,,CA,CA-AB,Primrose,no,CFN6,,CFN6,,https://en.wikipedia.org/wiki/Primrose_Aerodrome,FN6
44472,CA-0312,closed,Kingston Airfield,44.251099,-76.503403,,,CA,CA-ON,Kingston,no,,,,,https://en.wikipedia.org/wiki/Kingston_Airfield,
39968,CA-0322,closed,Saglek Airport,58.475119,-62.655373,269.0,,CA,CA-NL,RCAF Station Saglek,no,,YSV,,,https://en.wikipedia.org/wiki/Saglek_Airport,CYSV
335893,CA-0339,heliport,Carmanah Point Lighthouse Heliport,48.612051,-124.751778,94.0,,CA,CA-MB,Carmanah Point,no,,,BT2,,https://en.wikipedia.org/wiki/Carmanah_Point_Light_Station,
40037,CA-0391,small_airport,Ullswater Airport,45.2107,-79.5045,1012.0,,CA,CA-ON,Ullswater,no,CLW2,,CLW2,,https://en.wikipedia.org/wiki/Ullswater_Aerodrome,PN5
40039,CA-0393,small_airport,Upper Kent Airport,46.587133,-67.719555,246.0,,CA,CA-NB,Upper Kent,no,CCH2,,CCH2,,https://en.wikipedia.org/wiki/Upper_Kent_Aerodrome,CH2
40057,CA-0411,small_airport,Wingham (Inglis Field) Airport,43.897621,-81.335737,1035.0,,CA,CA-ON,Wingham,no,CWH5,,CWH5,,https://en.wikipedia.org/wiki/Wingham_(Inglis_Field)_Aerodrome,"PP5, CPP5"
40058,CA-0412,closed,Winisk Airport,55.2242,-85.1174,32.0,,CA,CA-ON,Winisk,no,,YWN,,,"https://en.wikipedia.org/wiki/Winisk,_Ontario",
40062,CA-0416,small_airport,Wrong Lake Airport,52.615452,-96.184015,840.0,,CA,CA-MB,,no,CJG4,,CJG4,,https://en.wikipedia.org/wiki/Wrong_Lake_Airport,
46374,CA-0427,small_airport,Disley Airport,50.637459,-105.036194,,,CA,CA-SK,Disley,no,CDS2,,CDS2,,https://en.wikipedia.org/wiki/Disley_Aerodrome,
46495,CA-0430,small_airport,Port Hope (Peter's Field) Airport,44.024881,-78.426976,560.0,,CA,CA-ON,Port Hope,no,CPH3,,CPH3,,https://en.wikipedia.org/wiki/Port_Hope_(Peter%27s_Field)_Aerodrome,
46500,CA-0432,small_airport,Regina / Aerogate Airport,50.597731,-104.601312,1980.0,,CA,CA-SK,Brora,no,CAG2,,CAG2,,https://en.wikipedia.org/wiki/Regina/Aerogate_Aerodrome,Parr Field
349730,CA-0445,closed,RCAF Detachment Standoff,49.55,-113.3333,3290.0,,CA,CA-AB,,no,,,,,https://en.wikipedia.org/wiki/RCAF_Station_Fort_Macleod,"BCATP, RCAF"
298348,CA-0457,small_airport,L'Île d'Entrée Airfield,47.276201,-61.712866,20.0,,CA,CA-QC,L'Île d'Entrée,no,,,,,https://en.wikipedia.org/wiki/Entry_Island,Ile d'entré
298654,CA-0483,closed,Armour Heights Field,43.740833,-79.422222,,,CA,CA-ON,Toronto,no,,,,,https://en.wikipedia.org/wiki/Armour_Heights_Field,
298655,CA-0484,closed,Barker Field,43.7146662063,-79.45590376850001,,,CA,CA-ON,Toronto,no,,,,,https://en.wikipedia.org/wiki/Barker_Field,
298656,CA-0485,closed,De Lesseps Field,43.6987669661,-79.49644804,,,CA,CA-ON,Toronto,no,,,,,https://en.wikipedia.org/wiki/De_Lesseps_Field,
298657,CA-0486,closed,Leaside Aerodrome,43.712778,-79.359167,,,CA,CA-ON,Toronto,no,,,,,https://en.wikipedia.org/wiki/Leaside_Aerodrome,
298658,CA-0487,closed,Long Branch Aerodrome,43.5729758606,-79.5534181595,,,CA,CA-ON,Mississauga,no,,,,,https://en.wikipedia.org/wiki/Long_Branch_Aerodrome,
298659,CA-0488,closed,Toronto Aerodrome,43.748889,-79.460833,,,CA,CA-ON,Toronto,no,,,,,https://en.wikipedia.org/wiki/Toronto_Aerodrome,Canadian Air Express Airport
298660,CA-0489,closed,Willowdale Airfield,43.7652210059,-79.4237494469,,,CA,CA-ON,Toronto,no,,,,,https://en.wikipedia.org/wiki/Willowdale_Airfield,
298661,CA-0490,closed,Aérodrome Saint-Louis,46.7707326713,-71.2854766846,,,CA,CA-QC,Sainte-Foy,no,,,,,https://en.wikipedia.org/wiki/A%C3%A9rodrome_Saint-Louis,"Aérodrome du Bois Gomin, Canadian Transcontinental Airways Airport"
298662,CA-0491,closed,Montréal / Boucherville Water Aerodrome,45.627778,-73.454722,,,CA,CA-QC,,no,,,CTA7,,https://en.wikipedia.org/wiki/Montr%C3%A9al/Boucherville_Water_Aerodrome,
299272,CA-0497,small_airport,Vulcan / Kirkcaldy Airport,50.331944,-113.357778,3418.0,,CA,CA-AB,Vulcan,no,CVL2,,CVL2,,https://en.wikipedia.org/wiki/Vulcan/Kirkcaldy_Aerodrome,"RCAF Station Vulcan, BCATP Vulcan"
299911,CA-0504,small_airport,Mary River Aerodrome,71.324167,-79.356944,584.0,,CA,CA-NU,Mary River,no,,YMV,CMR2,,https://en.wikipedia.org/wiki/Mary_River_Aerodrome,
300233,CA-0505,seaplane_base,Rivière Temiscamie Floatbase,51.008489,-72.989837,,,CA,CA-QC,,no,CSV7,,CSV7,,https://en.wikipedia.org/wiki/Rivi%C3%A8re_T%C3%A9miscamie_Water_Aerodrome,"SV7, Lac Albanel"
301224,CA-0510,seaplane_base,Balsam Lake Seaplane Base,44.54063,-78.893096,850.0,,CA,CA-ON,Kirkfield,no,CKW7,,CKW7,,https://en.wikipedia.org/wiki/Kirkfield/Balsam_Lake_Seaplane_Base,
301226,CA-0511,seaplane_base,Val D'or (St. Pierre) Water Aerodrome,48.077864,-77.869655,1000.0,,CA,CA-QC,Val d'Or,no,CSP7,,CSP7,,https://en.wikipedia.org/wiki/Val-d%27Or_(St-Pierre)_Water_Aerodrome,
301227,CA-0512,seaplane_base,Val D'or / Huard Water Aerodrome,48.071742,-77.87384,984.0,,CA,CA-QC,Val D'or,no,CVB6,,CVB6,,https://en.wikipedia.org/wiki/Val-d%27Or_(Huard)_Water_Aerodrome,
307238,CA-0516,small_airport,Warren Field,42.936718,-81.479738,813.0,,CA,CA-ON,Mount Brydges,no,CWF3,,CWF3,,https://en.wikipedia.org/wiki/Mount_Brydges/Warren_Field_Aerodrome,
309890,CA-0525,small_airport,Flamboro Centre Airport,43.371599,-79.93238,810.0,,CA,CA-ON,Flamborough,no,CFC8,,CFC8,,https://en.wikipedia.org/wiki/Flamboro_Centre_Aerodrome,Charlie's Field
309272,CA-0526,small_airport,Rivière-aux-Saumons Aerodrome (Private Operator: Safari Anticosti),49.401389,-62.295278,369.0,,CA,CA-QC,Rivière-aux-Saumons,no,CTH7,,CTH7,,https://en.wikipedia.org/wiki/Rivi%C3%A8re-aux-Saumons_Aerodrome,
314912,CA-0548,closed,North Cariboo Air Park,54.008098602295,-123.02300262451,2500.0,,CA,CA-BC,Prince George,no,,,,,https://en.wikipedia.org/wiki/Prince_George_(North_Cariboo_Air_Park)_Airport,"BW8, CBW8"
315836,CA-0550,seaplane_base,Cree Lake (Crystal Lodge) Water Aerodrome,57.4616,-106.7528,1593.0,,CA,CA-SK,Crystal Lodge,no,CRE4,,CRE4,http://www.creelake.com/map-and-flight.html,https://en.wikipedia.org/wiki/Cree_Lake_(Crystal_Lodge)_Water_Aerodrome,RE4
316198,CA-0557,closed,Fort Providence Water Aerodrome,61.35,-117.651,470.0,,CA,CA-NT,Fort Providence,no,,,CEX7,,https://en.wikipedia.org/wiki/Fort_Providence_Water_Aerodrome,EX7
317280,CA-0564,small_airport,Carnie Airfield,42.424644,-81.865847,750.0,,CA,CA-ON,Ridgetown,no,CRN2,,CRN2,,https://en.wikipedia.org/wiki/Ridgetown_(Carnie_Airfield)_Aerodrome,
317772,CA-0566,heliport,Triple Island Lightstation Helipad,54.294727,-130.880179,40.0,,CA,CA-BC,Triple Islands,no,,,,,https://en.wikipedia.org/wiki/Triple_Island_Lightstation,YTI
317860,CA-0570,closed,RCAF Detachment Alliston,44.12,-79.82,719.0,,CA,CA-ON,Alliston,no,,,,,https://en.wikipedia.org/wiki/RCAF_Detachment_Alliston,
320123,CA-0595,small_airport,Didsbury/Minty Field,51.6535,-114.353,3480.0,,CA,CA-AB,Didsbury,no,,,CDM2,,https://en.wikipedia.org/wiki/Didsbury/Minty_Field_Aerodrome,
320190,CA-0598,small_airport,Bracebridge (Stone Wall Farm) Airport,44.988503,-79.1895,1050.0,,CA,CA-ON,Bracebridge,no,CSW4,,CSW4,,https://en.wikipedia.org/wiki/Bracebridge_(Stone_Wall_Farm)_Aerodrome,
320194,CA-0600,closed,Rivère l'Acadie Water Aerodrome,45.49035,-73.303326,30.0,,CA,CA-QC,Carignan,no,,,,,https://en.wikipedia.org/wiki/Carignan/Riv%C3%A8re_l%27Acadie_Water_Aerodrome,CJF2
320339,CA-0609,small_airport,Palestine Airport,44.490101,-78.977902,897.0,,CA,CA-ON,Kirkfield,no,CKP4,,CKP4,,https://en.wikipedia.org/wiki/Kirkfield_(Palestine)_Aerodrome,
320343,CA-0610,small_airport,Lampman/Spitfire Air Airport,49.49,-102.882902,1967.0,,CA,CA-SK,Lampman,no,CSF8,,CSF8,,https://en.wikipedia.org/wiki/Lampman/Spitfire_Air_Aerodrome,
320420,CA-0612,heliport,Chrome Island Lightstation Helipad,49.471829,-124.684468,48.0,,CA,CA-BC,Chrome Island,no,,,AL2,,https://en.wikipedia.org/wiki/Chrome_Island_lighthouse,
320608,CA-0642,heliport,Ivory Island Lightstation Helipad,52.271104,-128.405304,14.0,,CA,CA-BC,Seaforth Channel,no,,,BM2,,https://en.wikipedia.org/wiki/Ivory_Island,
320671,CA-0653,small_airport,Aviation PLMG Inc Airport,46.8844,-75.3329,880.0,,CA,CA-QC,Ste-Anne-du-Lac,no,CAL8,,CAL8,,https://en.wikipedia.org/wiki/Sainte-Anne-du-Lac_(Aviation_PLMG_Inc.)_Aerodrome,
320676,CA-0654,closed,St. Lina Airport,54.3014,-111.498901,2120.0,,CA,CA-AB,St. Lina,no,,,,,https://en.wikipedia.org/wiki/St._Lina_Aerodrome,CSL4
320779,CA-0663,closed,Riviere-St-Maurice-Aviation-Mauricie-Seaplane-Base,46.654,-72.704,325.0,,CA,CA-QC,Grand-Mére,no,,,CMA3,,https://en.wikipedia.org/wiki/Rivi%C3%A8re_Saint-Maurice_(Aviation_Maurice)_Water_Aerodrome,
350794,CA-0666,heliport,Ottawa / Questral Helicopters Heliport,45.29917,-75.5,280.0,,CA,CA-ON,Ottawa,no,CQH2,,,https://www.questralhelicopters.com/,https://en.wikipedia.org/wiki/List_of_airports_in_the_Ottawa_area,
325127,CA-0688,closed,Amherst Airport,45.812972,-64.239019,69.0,,CA,CA-NS,Amherst,no,,,CQ4,,https://en.wikipedia.org/wiki/Amherst_Airport,
325130,CA-0691,closed,Tatamagouche Airport,45.734393,-63.324875,8.0,,CA,CA-NS,Tatamgouche,no,,,DA2,,https://en.wikipedia.org/wiki/Tatamagouche_Airport,
351052,CA-0774,small_airport,Keats Point Airport,69.677263,-121.684785,,,CA,CA-NT,,no,,,,,https://en.wikipedia.org/wiki/North_Warning_System#Keats_Point,
16566,CA35,small_airport,San Rafael Airport,38.01689910888672,-122.52100372314452,5.0,,US,US-CA,San Rafael,no,CA35,,CA35,,https://en.wikipedia.org/wiki/San_Rafael_Airport_(California),
16597,CA66,small_airport,Monterey Bay Academy Airport,36.90610122680664,-121.84300231933594,70.0,,US,US-CA,Watsonville,no,CA66,,CA66,,https://en.wikipedia.org/wiki/Monterey_Bay_Academy_Airport,
306929,CAA2,small_airport,St. André-Avellin Aerodrome,45.744319,-75.070267,550.0,,CA,CA-QC,St. Andre Avellin,no,CAA2,,CAA2,,https://en.wikipedia.org/wiki/Saint-Andr%C3%A9-Avellin_Aerodrome,
339349,CAA4,small_airport,Saint-Apollinaire (Airpro) Aerodrome,46.586944,-71.561111,380.0,,CA,CA-QC,Saint-Apollinaire,no,CAA4,,CAA4,,https://en.wikipedia.org/wiki/Saint-Apollinaire_(Airpro)_Aerodrome,
28471,CAA5,seaplane_base,Zeballos Seaplane Base,49.9778,-126.8445,0.0,,CA,CA-BC,Zeballos,no,CAA5,,CAA5,,https://en.wikipedia.org/wiki/Zeballos_Water_Aerodrome,AA5
28237,CAA7,seaplane_base,Gilford Island/Echo Bay Seaplane Base,50.7667007446,-126.483001709,0.0,,CA,CA-BC,Gilford Island,no,CAA7,,CAA7,,https://en.wikipedia.org/wiki/Gilford_Island/Echo_Bay_Water_Aerodrome,AA7
612,CAA8,small_airport,Invermere Airport,50.521502,-116.005775,2820.0,,CA,CA-BC,Invermere,no,CAA8,,CAA8,,https://en.wikipedia.org/wiki/Invermere_Airport,AA8
28374,CAA9,seaplane_base,Port Alberni/Sproat Lake Seaplane Base,49.2891524507,-124.937746525,95.0,,CA,CA-BC,Sproat Lake,no,CAA9,,CAA9,,https://en.wikipedia.org/wiki/Port_Alberni/Sproat_Lake_Water_Aerodrome,AA9
28174,CAB3,seaplane_base,Bedwell Harbour Seaplane Base,48.75,-123.233001709,0.0,,CA,CA-BC,Bedwell Harbour,yes,CAB3,YBW,CAB3,,https://en.wikipedia.org/wiki/Bedwell_Harbour_Water_Aerodrome,AB3
28447,CAB4,seaplane_base,Tofino Harbour Seaplane Base,49.155,-125.91,0.0,,CA,CA-BC,Tofino Harbour,no,CAB4,YTP,CAB4,,https://en.wikipedia.org/wiki/Tofino_Harbour_Water_Aerodrome,AB4
28142,CAB5,closed,Bronson Creek Airport,56.681098938,-131.087005615,396.0,,CA,CA-BC,Bronson Creek,no,,YBM,,,https://en.wikipedia.org/wiki/Bronson_Creek_Airport,"CAB5, AB5, Snip Gold Mine"
28155,CAC3,closed,Alice Arm/Silver City Seaplane Base,55.4667015076,-129.483001709,0.0,,CA,CA-BC,,no,CAC3,ZAA,CAC3,,https://en.wikipedia.org/wiki/Alice_Arm/Silver_City_Water_Aerodrome,
28468,CAC5,seaplane_base,Williams Lake Seaplane Base,52.1166992188,-122.099998474,1859.0,,CA,CA-BC,Williams Lake,no,CAC5,,CAC5,,https://en.wikipedia.org/wiki/Williams_Lake_Water_Aerodrome,AC5
28332,CAC8,seaplane_base,Nanaimo Harbour Water Airport,49.169813,-123.933845,,,CA,CA-BC,Nanaimo,yes,CAC8,ZNA,CAC8,,https://en.wikipedia.org/wiki/Nanaimo_Harbour_Water_Airport,AC8
28427,CAC9,seaplane_base,Stewart Seaplane Base,55.916698,-130.0,,,CA,CA-BC,Stewart,no,CAC9,,CAC9,,https://en.wikipedia.org/wiki/Stewart_Water_Aerodrome,AC9
614,CAD4,small_airport,Trail Airport,49.0555992126,-117.60900116,1427.0,,CA,CA-BC,Trail,no,CAD4,YZZ,CAD4,,https://en.wikipedia.org/wiki/Trail_Airport,AD4
615,CAD5,small_airport,Merritt Airport,50.1227989197,-120.747001648,2080.0,,CA,CA-BC,Merritt,no,CAD5,YMB,CAD5,,https://en.wikipedia.org/wiki/Merritt_Airport,"AD5, Saunders Field"
28164,CAD6,seaplane_base,Atlin Seaplane Base,59.5666999817,-133.716995239,2190.0,,CA,CA-BC,Atlin,no,CAD6,,CAD6,,https://en.wiki2.org/wiki/Atlin_Water_Aerodrome,AD6
28238,CAD7,seaplane_base,Gilford Island/Health Bay Seaplane Base,50.7000007629,-126.599998474,0.0,,CA,CA-BC,Gilford Island,no,CAD7,,CAD7,,https://en.wikipedia.org/wiki/Gilford_Island/Health_Bay_Water_Aerodrome,AD7
28335,CAD8,seaplane_base,Nelson Seaplane Base,49.5,-117.300003052,1740.0,,CA,CA-BC,Nelson,no,CAD8,,CAD8,,https://en.wikipedia.org/wiki/Nelson_Water_Aerodrome,AD8
28187,CAE3,seaplane_base,Campbell River Seaplane Base,50.049999,-125.25,,,CA,CA-BC,Campbell River,no,CAE3,YHH,CAE3,,https://en.wikipedia.org/wiki/Campbell_River_Water_Aerodrome,"AE3, Campbell River Harbour Airport"
617,CAE4,small_airport,Tsacha Lake Airport,53.016700744628906,-124.83300018310548,3450.0,,CA,CA-BC,Tsacha Lake,no,CAE4,,CAE4,,https://en.wikipedia.org/wiki/Tsacha_Lake_Airport,AE4
28465,CAE5,seaplane_base,Whistler/Green Lake Water Aerodrome,50.1436004639,-122.948997498,2100.0,,CA,CA-BC,Whistler,yes,CAE5,YWS,CAE5,,https://en.wikipedia.org/wiki/Whistler/Green_Lake_Water_Aerodrome,AE5
28251,CAE7,seaplane_base,Harrison Hot Springs Seaplane Base,49.3048530057,-121.785936356,34.0,,CA,CA-BC,Harrison Hot Springs,no,CAE7,,CAE7,,https://en.wikipedia.org/wiki/Harrison_Hot_Springs_Water_Aerodrome,AE7
28169,CAE9,seaplane_base,Bamfield Seaplane Base,48.8333015442,-125.133003235,0.0,,CA,CA-BC,Bamfield,no,CAE9,YBF,CAE9,,https://en.wikipedia.org/wiki/Bamfield_Water_Aerodrome,AE9
320199,CAF2,small_airport,Cayuga East Airport,42.960301,-79.788,644.0,,CA,CA-ON,Cayuga,no,CAF2,,CAF2,,https://en.wikipedia.org/wiki/Cayuga_East_Aerodrome,
618,CAF4,small_airport,Tsuniah Lake Lodge Airport,51.526371,-124.163961,4000.0,,CA,CA-BC,Cariboo,no,CAF4,,CAF4,,https://en.wikipedia.org/wiki/Tsuniah_Lake_Lodge_Airport,AF4
28177,CAF6,seaplane_base,Big Bay Seaplane Base,50.3923,-125.1372,,,CA,CA-BC,Stuart Island,no,CAF6,YIG,CAF6,,https://en.wikipedia.org/wiki/Big_Bay_Water_Aerodrome,AF6
28339,CAF8,seaplane_base,Nimpo Lake Seaplane Base,52.327,-125.145,3665.0,,CA,CA-BC,Nimpo Lake,no,CAF8,,CAF8,,https://en.wikipedia.org/wiki/Nimpo_Lake_Water_Aerodrome,AF8
619,CAG3,small_airport,Chilko Lake (Tsylos Park Lodge) Airport,51.625797,-124.144478,3850.0,,CA,CA-BC,Chilko Lake,no,CAG3,CJH,CAG3,,https://en.wikipedia.org/wiki/Chilko_Lake_(Tsylos_Park_Lodge)_Airport,AG3
28182,CAG6,seaplane_base,Blind Channel Seaplane Base,50.416698,-125.5,0.0,,CA,CA-BC,,no,CAG6,,CAG6,,https://en.wikipedia.org/wiki/Blind_Channel_Water_Aerodrome,AG6
28364,CAG8,seaplane_base,Pender Harbour Seaplane Base,49.623785,-124.024884,,,CA,CA-BC,Sunshine Coast,no,CAG8,YPT,CAG8,,https://en.wikipedia.org/wiki/Pender_Harbour_Water_Aerodrome,AG8
28433,CAG9,seaplane_base,Surge Narrows Seaplane Base,50.216702,-125.116997,0.0,,CA,CA-BC,Surge Narrows,no,CAG9,,CAG9,,https://en.wikipedia.org/wiki/Surge_Narrows_Water_Aerodrome,AG9
28346,CAH2,seaplane_base,Ocean Falls Seaplane Base,52.3666992188,-127.717002869,0.0,,CA,CA-BC,Ocean Falls,no,CAH2,ZOF,CAH2,,https://en.wikipedia.org/wiki/Ocean_Falls_Water_Aerodrome,
620,CAH3,small_airport,Courtenay Airpark,49.679401397705,-124.9820022583,26.0,,CA,CA-BC,Courtenay,no,CAH3,YCA,CAH3,,https://en.wikipedia.org/wiki/Courtenay_Airpark,AH3
621,CAH4,small_airport,Valemount Airport,52.85329818725586,-119.33399963378906,2615.0,,CA,CA-BC,Valemount,no,CAH4,,CAH4,,https://en.wikipedia.org/wiki/Valemount_Airport,AH4
28268,CAH7,seaplane_base,Kamloops Seaplane Base,50.700003,-120.432999,1129.0,,CA,CA-BC,,no,CAH7,,CAH7,,https://en.wikipedia.org/wiki/Kamloops_Water_Aerodrome,AH7
28365,CAH8,closed,Penticton Seaplane Base,49.45003,-119.599998,1108.0,,CA,CA-BC,,no,CAH8,,CAH8,,https://en.wikipedia.org/wiki/Penticton_Water_Aerodrome,AH8
28437,CAH9,closed,Telegraph Creek Seaplane Base,57.900002,-131.182999,1100.0,,CA,CA-BC,,no,CAH9,,CAH9,,https://en.wikipedia.org/wiki/Telegraph_Creek_Water_Aerodrome,AH9
622,CAJ2,small_airport,Wiley Airport,66.49109649658203,-136.572998046875,2365.0,,CA,CA-YT,Eagle Plains,no,CAJ2,,CAJ2,,https://en.wikipedia.org/wiki/Wiley_Aerodrome,AJ2
623,CAJ3,small_airport,Creston Valley Regional Airport - Art Sutcliffe Field,49.03689956665,-116.49800109863,2070.0,,CA,CA-BC,Creston,no,CAJ3,CFQ,CAJ3,http://www.crestonairport.ca/,https://en.wikipedia.org/wiki/Creston_(Art_Sutcliffe_Field)_Airport,AJ3
624,CAJ4,small_airport,Anahim Lake Airport,52.451501,-125.303776,3635.0,,CA,CA-BC,Anahim Lake,yes,CAJ4,YAA,CAJ4,,https://en.wikipedia.org/wiki/Anahim_Lake_Airport,AJ4
625,CAJ7,small_airport,Cayley A J Flying Ranch Airport,50.453887,-113.747191,3450.0,,CA,CA-AB,Cayley,no,CAJ7,,CAJ7,,https://en.wikipedia.org/wiki/Cayley/A._J._Flying_Ranch_Airport,AJ7
626,CAJ9,small_airport,Fort Ware Airport,57.42720031738281,-125.6500015258789,2450.0,,CA,CA-BC,Fort Ware,no,CAJ9,,CAJ9,,https://en.wikipedia.org/wiki/Fort_Ware_Airport,AJ9
627,CAK3,small_airport,Delta Heritage Air Park,49.0774,-122.941002,10.0,,CA,CA-BC,Delta,no,CAK3,,CAK3,http://www.deltaheritageairpark.org,https://en.wikipedia.org/wiki/Delta/Delta_Heritage_Air_Park,AK3
28188,CAK6,seaplane_base,Camp Cordero Seaplane Base,50.446694,-125.453785,0.0,,CA,CA-BC,,no,CAK6,,CAK6,,https://en.wikipedia.org/wiki/Camp_Cordero_Water_Aerodrome,AK6
629,CAL3,small_airport,Douglas Lake Airport,50.1654600485,-120.171273351,2770.0,,CA,CA-BC,Douglas Lake,no,CAL3,DGF,CAL3,,https://en.wikipedia.org/wiki/Douglas_Lake_Airport,AL3
30592,CAL4,small_airport,Fort MacKay/Albian Aerodrome,57.2238998413,-111.418998718,1048.0,,CA,CA-AB,Albian Village,no,CAL4,JHL,CAL4,,https://en.wikipedia.org/wiki/Fort_MacKay/Albian_Aerodrome,"Shell Canada, Jackpine Mine"
28375,CAL8,closed,Port Alice/Jeune Landing Seaplane Base,50.423233,-127.486232,0.0,,CA,CA-BC,Port Alice,no,,,AL8,,https://en.wikipedia.org/wiki/Port_Alice/Rumble_Beach_Water_Aerodrome,"CAL8, Rumble Beach Water Aerodrome"
28434,CAL9,seaplane_base,Tahsis Seaplane Base,49.9166984558,-126.666999817,0.0,,CA,CA-BC,Tahsis,no,CAL9,ZTS,CAL9,,https://en.wikipedia.org/wiki/Tahsis_Water_Aerodrome,
631,CAM3,small_airport,Duncan Airport,48.754534,-123.709702,300.0,,CA,CA-BC,Duncan,no,CAM3,DUQ,CAM3,,https://en.wikipedia.org/wiki/Duncan_Airport,AM3
46598,CAM4,small_airport,Alhambra / Ahlstrom Airport,52.346194,-114.667525,3212.0,,CA,CA-AB,Alhambra,no,CAM4,,CAM4,,https://en.wikipedia.org/wiki/Alhambra/Ahlstrom_Aerodrome,
632,CAM5,small_airport,Houston Airport,54.4392009821,-126.778879166,2150.0,,CA,CA-BC,Houston,no,CAM5,,CAM5,,https://en.wikipedia.org/wiki/Houston_Airport_(British_Columbia),AM5
28454,CAM9,seaplane_base,Vancouver International Seaplane Base,49.177047,-123.168154,0.0,,CA,CA-BC,Vancouver,yes,CAM9,,CAM9,,https://en.wikipedia.org/wiki/Vancouver_International_Water_Airport,AM9
28450,CAN3,seaplane_base,Ucluelet Seaplane Base,48.950003,-125.550005,,,CA,CA-BC,,no,CAN3,,CAN3,,https://en.wikipedia.org/wiki/Ucluelet_Water_Aerodrome,AN3
28385,CAN6,seaplane_base,Prince Rupert/Digby Island Seaplane Base,54.313646,-130.405058,0.0,,CA,CA-BC,Prince Rupert,no,CAN6,,CAN6,,https://en.wikipedia.org/wiki/Prince_Rupert/Digby_Island_Water_Aerodrome,AN6
28381,CAN8,closed,Port Simpson Seaplane Base,54.5667,-130.432999,0.0,,CA,CA-BC,Lax Kw'alaams,no,CAN8,YPI,CAN8,,https://en.wikipedia.org/wiki/Port_Simpson_Water_Aerodrome,AN8
28455,CAN9,seaplane_base,Vanderhoof (District) Seaplane Base,54.0206,-123.995001,2050.0,,CA,CA-BC,Vanderhoof,no,CAN9,,CAN9,,https://en.wikipedia.org/wiki/Vanderhoof_(District)_Water_Aerodrome,"AN9, Vanderhoof Flying Club"
634,CAP3,small_airport,Sechelt-Gibsons Airport,49.4606018066,-123.71900177,340.0,,CA,CA-BC,Sechelt,no,CAP3,YHS,CAP3,,https://en.wikipedia.org/wiki/Sechelt-Gibsons_Airport,"AP3, Sechelt Aerodrome, Sunshine Coast Airfield"
635,CAP6,small_airport,Ingenika Airport,56.790599823,-124.897003174,2230.0,,CA,CA-BC,Ingenika,no,CAP6,,CAP6,,https://en.wikipedia.org/wiki/Ingenika_Airport,WWU
